[{"address":"Marquette \/ du Mont-Royal","latitude":45.53229,"longitude":-73.57544,"type":"high"},{"address":"Milton \/ University","latitude":45.5065198,"longitude":-73.576405,"type":"high"},{"address":"Boyer \/ du Mont-Royal","latitude":45.527432,"longitude":-73.579917,"type":"high"},{"address":"Mackay \/ de Maisonneuve","latitude":45.49683,"longitude":-73.57913,"type":"high"},{"address":"McTavish \/ Sherbrooke","latitude":45.502813,"longitude":-73.576024,"type":"high"},{"address":"des Pins \/ St-Laurent","latitude":45.5152281,"longitude":-73.5750961,"type":"high"},{"address":"St-Dominique \/ St-Zotique","latitude":45.532265,"longitude":-73.611063,"type":"average"},{"address":"Waverly \/ St-Viateur","latitude":45.523856,"longitude":-73.600127,"type":"average"},{"address":"Atateken \/ du Square Amherst","latitude":45.5206338,"longitude":-73.563906,"type":"average"},{"address":"de la Commune \/ Place Jacques-Cartier","latitude":45.50761,"longitude":-73.551836,"type":"average"},{"address":"Andr\u00e9-Laurendeau \/ Rachel","latitude":45.5428981,"longitude":-73.561846,"type":"average"},{"address":"Jeanne-Mance \/ Laurier","latitude":45.5201249,"longitude":-73.5952138,"type":"average"},{"address":"M\u00e9tro Peel (de Maisonneuve \/ Stanley)","latitude":45.50038,"longitude":-73.57507,"type":"average"},{"address":"Aylwin \/ Ontario","latitude":45.544284,"longitude":-73.54534,"type":"average"},{"address":"Cartier \/ Marie-Anne","latitude":45.532674,"longitude":-73.571776,"type":"average"},{"address":"Prince-Arthur \/ du Parc","latitude":45.51059,"longitude":-73.57547,"type":"average"},{"address":"Clark \/ Rachel","latitude":45.517354,"longitude":-73.582129,"type":"average"},{"address":"M\u00e9tro Mont-Royal (Utilit\u00e9s publiques \/ Rivard)","latitude":45.5242361,"longitude":-73.5815522,"type":"average"},{"address":"St-Dominique \/ du Mont-Royal","latitude":45.5205595,"longitude":-73.5858203,"type":"average"},{"address":"de Lanaudi\u00e8re \/ du Mont-Royal","latitude":45.5302211,"longitude":-73.5769965,"type":"average"},{"address":"M\u00e9tro Papineau (Dorion \/ De Maisonneuve)","latitude":45.5238446,"longitude":-73.552366,"type":"average"},{"address":"Marquette \/ Laurier","latitude":45.53543,"longitude":-73.5822,"type":"average"},{"address":"M\u00e9tro Sherbrooke (de Rigaud \/ Berri)","latitude":45.518292,"longitude":-73.567971,"type":"average"},{"address":"Milton \/ Durocher","latitude":45.508141,"longitude":-73.57493,"type":"average"},{"address":"St-Dominique \/ Laurier","latitude":45.5236149,"longitude":-73.5924574,"type":"average"},{"address":"Jeanne-Mance \/ Sherbrooke","latitude":45.5092868,"longitude":-73.5710192,"type":"average"},{"address":"M\u00e9tro Vend\u00f4me (de Marlowe \/ de Maisonneuve)","latitude":45.473868,"longitude":-73.604538,"type":"average"},{"address":"Laurier \/ St-Denis","latitude":45.5271484,"longitude":-73.5894795,"type":"average"},{"address":"M\u00e9tro Place-des-Arts (du Pr\u00e9sident-Kennedy \/ Jeanne-Mance)","latitude":45.5082046,"longitude":-73.5688144,"type":"average"},{"address":"de Lanaudi\u00e8re \/ Laurier","latitude":45.533314,"longitude":-73.583737,"type":"average"},{"address":"M\u00e9tro Beaubien (de Chateaubriand \/ Beaubien)","latitude":45.53536,"longitude":-73.603635,"type":"average"},{"address":"Mackay \/ Ste-Catherine","latitude":45.495709,"longitude":-73.576952,"type":"average"},{"address":"Laval \/ du Mont-Royal","latitude":45.522365,"longitude":-73.584146,"type":"average"},{"address":"M\u00e9tro Pie-IX (Pierre-de-Coubertin \/ Desjardins)","latitude":45.5543734,"longitude":-73.5513747,"type":"average"},{"address":"de la Commune \/ King","latitude":45.497515,"longitude":-73.552571,"type":"average"},{"address":"10e avenue \/ Masson","latitude":45.550306,"longitude":-73.573353,"type":"average"},{"address":"\u00c9mile-Duploy\u00e9 \/ Sherbrooke","latitude":45.527201,"longitude":-73.564729,"type":"average"},{"address":"Clark \/ Laurier","latitude":45.5225445,"longitude":-73.5934693,"type":"average"},{"address":"des Bassins \/ du S\u00e9minaire","latitude":45.490452,"longitude":-73.560172,"type":"average"},{"address":"St-Hubert \/ Duluth","latitude":45.522426,"longitude":-73.574184,"type":"average"},{"address":"St-Denis \/ Ste-Catherine","latitude":45.5137229,"longitude":-73.5603105,"type":"average"},{"address":"Calixa-Lavall\u00e9e \/ Sherbrooke","latitude":45.52479,"longitude":-73.56545,"type":"average"},{"address":"Gare d'autocars de Montr\u00e9al (Berri \/ Ontario)","latitude":45.516897,"longitude":-73.563949,"type":"average"},{"address":"Ste-Catherine \/ Union","latitude":45.5036663,"longitude":-73.5695761,"type":"average"},{"address":"Marmier \/ St-Denis","latitude":45.530871,"longitude":-73.598345,"type":"average"},{"address":"M\u00e9tro Jarry (Lajeunesse \/ Jarry)","latitude":45.5435597,"longitude":-73.627772,"type":"average"},{"address":"St-Charles \/ Thomas-Keefer","latitude":45.477605,"longitude":-73.573775,"type":"average"},{"address":"Peel \/ Notre-Dame","latitude":45.4954469,"longitude":-73.5632944,"type":"average"},{"address":"Rachel \/ de Br\u00e9beuf","latitude":45.52689,"longitude":-73.57264,"type":"average"},{"address":"March\u00e9 Atwater","latitude":45.480208,"longitude":-73.577599,"type":"average"},{"address":"Peel \/ Ottawa","latitude":45.4941996,"longitude":-73.5599846,"type":"average"},{"address":"Parc du P\u00e9lican (1\u00e8re avenue \/ Masson)","latitude":45.5451997,"longitude":-73.5764507,"type":"average"},{"address":"Jeanne-Mance \/ St-Viateur","latitude":45.523027,"longitude":-73.60184,"type":"average"},{"address":"du Parc-Lafontaine \/ Rachel","latitude":45.5254742,"longitude":-73.5743251,"type":"average"},{"address":"de la Commune \/ St-Sulpice","latitude":45.504242,"longitude":-73.55347,"type":"average"},{"address":"Duluth  \/ St-Denis","latitude":45.5208024,"longitude":-73.5757989,"type":"average"},{"address":"5e avenue \/ Masson","latitude":45.5475583,"longitude":-73.5754719,"type":"average"},{"address":"Laurier \/ de Br\u00e9beuf","latitude":45.532514,"longitude":-73.584811,"type":"average"},{"address":"Square St-Louis (du Square St-Louis \/ Laval)","latitude":45.516091,"longitude":-73.570129,"type":"average"},{"address":"Boyer \/ St-Zotique","latitude":45.53848,"longitude":-73.60556,"type":"average"},{"address":"Guy \/ Sainte-Catherine","latitude":45.4949751,"longitude":-73.5777704,"type":"average"},{"address":"St-Andr\u00e9 \/ Ste-Catherine","latitude":45.516427,"longitude":-73.558112,"type":"average"},{"address":"Richmond \/ des Bassins","latitude":45.4875216,"longitude":-73.565003,"type":"average"},{"address":"Ste-Catherine \/ Towers","latitude":45.4922807,"longitude":-73.5809648,"type":"average"},{"address":"Berri \/ Cherrier","latitude":45.519088,"longitude":-73.569509,"type":"average"},{"address":"Clark \/ St-Viateur","latitude":45.5251603,"longitude":-73.5992467,"type":"average"},{"address":"Clark \/ Prince-Arthur","latitude":45.513303,"longitude":-73.572961,"type":"average"},{"address":"Pontiac \/ Gilford","latitude":45.527009,"longitude":-73.585766,"type":"average"},{"address":"Prince-Arthur \/ St-Urbain","latitude":45.512587,"longitude":-73.573739,"type":"average"},{"address":"Villeneuve \/ St-Laurent","latitude":45.521342,"longitude":-73.589419,"type":"average"},{"address":"Aylmer \/ Prince-Arthur","latitude":45.508567,"longitude":-73.577698,"type":"average"},{"address":"Milton \/ du Parc","latitude":45.509361,"longitude":-73.573864,"type":"average"},{"address":"Duluth \/ de l'Esplanade","latitude":45.515092,"longitude":-73.581142,"type":"average"},{"address":"Chomedey \/ de Maisonneuve","latitude":45.4918,"longitude":-73.584006,"type":"average"},{"address":"Messier \/ du Mont-Royal","latitude":45.537114,"longitude":-73.571003,"type":"average"},{"address":"Crescent \/ de Maisonneuve","latitude":45.498112,"longitude":-73.577615,"type":"average"},{"address":"Gilford \/ St-Denis","latitude":45.5251147,"longitude":-73.586006,"type":"average"},{"address":"Hutchison \/ Prince-Arthur","latitude":45.509759,"longitude":-73.576107,"type":"average"},{"address":"Gary-Carter \/ St-Laurent","latitude":45.5359,"longitude":-73.622443,"type":"average"},{"address":"Laval \/ Duluth","latitude":45.519216,"longitude":-73.57718,"type":"average"},{"address":"St-Timoth\u00e9e \/ Robin","latitude":45.5186318,"longitude":-73.5611299,"type":"low"},{"address":"Pr\u00e9fontaine \/ Marcel-P\u00e9pin","latitude":45.5436538,"longitude":-73.5594206,"type":"low"},{"address":"H\u00e9l\u00e8ne-Baillargeon \/ St-Denis","latitude":45.52974,"longitude":-73.59527,"type":"low"},{"address":"Jean-Paul-Vincent \/ Adoncour","latitude":45.5646764,"longitude":-73.4795775,"type":"low"},{"address":"de Chenonceau \/ Chomedey","latitude":45.56157,"longitude":-73.75448,"type":"low"},{"address":"Drolet \/ St-Zotique","latitude":45.534882,"longitude":-73.609412,"type":"low"},{"address":"Logan \/ Fullum","latitude":45.528366,"longitude":-73.551171,"type":"low"},{"address":"Rose-de-Lima \/ Workman","latitude":45.4802642,"longitude":-73.5809936,"type":"low"},{"address":"de Normanville \/ Villeray","latitude":45.54717,"longitude":-73.618041,"type":"low"},{"address":"Parc Benny (Benny \/ de Monkland)","latitude":45.4669357,"longitude":-73.6315311,"type":"low"},{"address":"Parc Ludger-Duvernay (St-Andr\u00e9 \/ St-Hubert)","latitude":45.5314746,"longitude":-73.5924205,"type":"low"},{"address":"P\u00e9loquin \/ Fleury","latitude":45.5570222,"longitude":-73.6599016,"type":"low"},{"address":"Saint-R\u00e9mi \/ Valois","latitude":45.5839618,"longitude":-73.7208259,"type":"low"},{"address":"M\u00e9tro C\u00f4te-Ste-Catherine (Beaucourt \/ de la C\u00f4te-Ste-Catherine)","latitude":45.491513,"longitude":-73.633649,"type":"low"},{"address":"Terminus Le Carrefour (Terry-Fox \/ Le Carrefour)","latitude":45.5684203,"longitude":-73.7468728,"type":"low"},{"address":"St-Urbain \/ de la Gaucheti\u00e8re","latitude":45.507078,"longitude":-73.561395,"type":"low"},{"address":"Travaux publics LaSalle (Cordner \/ L\u00e9ger)","latitude":45.4452719,"longitude":-73.6244836,"type":"low"},{"address":"Parc Chenier (de l'Ar\u00e9na \/ Chenier)","latitude":45.6024865,"longitude":-73.5432905,"type":"low"},{"address":"Alexandre-DeS\u00e8ve \/ Ste-Catherine","latitude":45.52123,"longitude":-73.553861,"type":"low"},{"address":"Parc Lalancette (de Rouen \/ Valois)","latitude":45.548145,"longitude":-73.5471261,"type":"low"},{"address":"William \/ Robert-Bourassa","latitude":45.497165,"longitude":-73.55933,"type":"low"},{"address":"Irwin \/ Allard","latitude":45.4489034,"longitude":-73.6049049,"type":"low"},{"address":"M\u00e9tro Champ-de-Mars (Viger \/ Sanguinet)","latitude":45.510351,"longitude":-73.556508,"type":"low"},{"address":"Complexe sportif Claude Robillard (\u00c9mile-Journault)","latitude":45.5529855,"longitude":-73.6386477,"type":"low"},{"address":"15e avenue \/ Masson","latitude":45.553898,"longitude":-73.571387,"type":"low"},{"address":"St-Viateur \/ Casgrain","latitude":45.5271166,"longitude":-73.5977359,"type":"low"},{"address":"Mairie d'arrondissement St-Laurent (Beaudet \/ Marcel-Laurin)","latitude":45.5068242,"longitude":-73.681848,"type":"low"},{"address":"de Gasp\u00e9 \/ de Li\u00e8ge","latitude":45.542485,"longitude":-73.636342,"type":"low"},{"address":"du Square Dorchester \/ Peel","latitude":45.4996996,"longitude":-73.5719365,"type":"low"},{"address":"Parc Champdor\u00e9 (Champdor\u00e9 \/ de Lille)","latitude":45.5691762,"longitude":-73.6362934,"type":"low"},{"address":"Cartier \/ Gillford","latitude":45.535288,"longitude":-73.5773814,"type":"low"},{"address":"Place du Village (St-Jean-Baptiste \/ Notre-Dame)","latitude":45.6400029,"longitude":-73.490113,"type":"low"},{"address":"St-Jacques \/ Vinet","latitude":45.485329,"longitude":-73.5769227,"type":"low"},{"address":"Parc St-Henri (Laporte \/ Guay)","latitude":45.4801338,"longitude":-73.5859081,"type":"low"},{"address":"Chabanel \/ du Parc","latitude":45.538308,"longitude":-73.654884,"type":"low"},{"address":"St-Urbain \/ Beaubien","latitude":45.52951,"longitude":-73.61068,"type":"low"},{"address":"Ouimet \/ Goineau","latitude":45.5750482,"longitude":-73.6879957,"type":"low"},{"address":"du Havre \/ de Rouen","latitude":45.534563,"longitude":-73.554787,"type":"low"},{"address":"Cypress \/ Peel","latitude":45.499325,"longitude":-73.571768,"type":"low"},{"address":"de Melrose \/ Sherbrooke","latitude":45.46982,"longitude":-73.616961,"type":"low"},{"address":"Notre-Dame \/ St-Gabriel","latitude":45.507144,"longitude":-73.555119,"type":"low"},{"address":"Ste-Catherine \/ Drummond S\/E","latitude":45.4986699,"longitude":-73.5742392,"type":"low"},{"address":"Dixie \/ 54e avenue","latitude":45.4433803,"longitude":-73.7178916,"type":"low"},{"address":"Parc St-Laurent (Salk \/ Thomas-Chapais)","latitude":45.6062348,"longitude":-73.6287838,"type":"low"},{"address":"St-Urbain \/ Ren\u00e9-L\u00e9vesque","latitude":45.507838,"longitude":-73.563136,"type":"low"},{"address":"Wolfe \/ de la Gaucheti\u00e8re","latitude":45.5162224,"longitude":-73.5529733,"type":"low"},{"address":"Clark \/ Fleury","latitude":45.547581,"longitude":-73.665234,"type":"low"},{"address":"2e avenue \/ Jean-Rivard","latitude":45.562509,"longitude":-73.61656,"type":"low"},{"address":"Parc de la Conf\u00e9d\u00e9ration (Fielding \/ West Hill)","latitude":45.471882,"longitude":-73.6400217,"type":"low"},{"address":"Parc du P\u00e9lican (Molson \/ Masson)","latitude":45.5440891,"longitude":-73.5770595,"type":"low"},{"address":"Mexico \/ Valois","latitude":45.5847051,"longitude":-73.7192541,"type":"low"},{"address":"Parc Henri-Julien (Legendre \/ Henri-Julien)","latitude":45.5460356,"longitude":-73.6465985,"type":"low"},{"address":"de Chambly \/ Rachel","latitude":45.549911,"longitude":-73.558263,"type":"low"},{"address":"Industriel \/ Louis-J.-Lafortune","latitude":45.5819096,"longitude":-73.4552991,"type":"low"},{"address":"d'Orl\u00e9ans \/ Hochelaga","latitude":45.550768,"longitude":-73.549427,"type":"low"},{"address":"Guizot \/ St-Denis","latitude":45.543424,"longitude":-73.632462,"type":"low"},{"address":"Parc St-Claude (8e rue \/ 7e avenue)","latitude":45.5622343,"longitude":-73.6916762,"type":"low"},{"address":"LaSalle \/ Crawford","latitude":45.437914,"longitude":-73.58274,"type":"low"},{"address":"de Lanaudi\u00e8re \/ B\u00e9langer","latitude":45.543651,"longitude":-73.60565,"type":"low"},{"address":"Cartier \/ Rosemont","latitude":45.541247,"longitude":-73.591044,"type":"low"},{"address":"12e avenue \/ St-Zotique","latitude":45.556867,"longitude":-73.589307,"type":"low"},{"address":"Graham \/ Kindersley","latitude":45.51405,"longitude":-73.6472556,"type":"low"},{"address":"Beatty \/ de Verdun","latitude":45.45073,"longitude":-73.572575,"type":"low"},{"address":"Hochelaga \/ de l'Assomption","latitude":45.5668831,"longitude":-73.5394382,"type":"low"},{"address":"Berlioz \/ de l'\u00cele des Soeurs","latitude":45.459986,"longitude":-73.543956,"type":"low"},{"address":"Parc St-Louis (St-Joseph \/ 34e avenue)","latitude":45.4328398,"longitude":-73.6934915,"type":"low"},{"address":"Grand Boulevard \/ de Terrebonne","latitude":45.470544,"longitude":-73.63168,"type":"low"},{"address":"Michelet \/ Jean-Talon","latitude":45.5762911,"longitude":-73.583529,"type":"low"},{"address":"Parc Howard (de l'\u00c9p\u00e9e \/ de Li\u00e8ge)","latitude":45.5616903,"longitude":-73.610512,"type":"low"},{"address":"19e avenue \/ St-Zotique","latitude":45.561594,"longitude":-73.585643,"type":"low"},{"address":"Atwater \/ Sherbrooke","latitude":45.491226,"longitude":-73.58763,"type":"low"},{"address":"Mozart \/ Fran\u00e7ois-Foucault","latitude":45.604288,"longitude":-73.6649179,"type":"low"},{"address":"Boucher \/ St-Denis","latitude":45.5278492,"longitude":-73.5918613,"type":"low"},{"address":"Beaubien \/ Clark","latitude":45.5301473,"longitude":-73.609824,"type":"low"},{"address":"Jardin Botanique d\u00e9p\u00f4t fiert\u00e9 (Sherbrooke \/ Pie-IX)","latitude":45.5567924,"longitude":-73.554647,"type":"low"},{"address":"de Gasp\u00e9 \/ Villeray","latitude":45.5388872,"longitude":-73.623907,"type":"low"},{"address":"M\u00e9tro \u00c9douard-Montpetit (du Mont-Royal \/ Vincent-d'Indy)","latitude":45.510086,"longitude":-73.611429,"type":"low"},{"address":"Ernest-Gendreau \/ du Mont-Royal","latitude":45.549714,"longitude":-73.563848,"type":"low"},{"address":"McKenna \/ \u00c9douard-Montpetit","latitude":45.5011651,"longitude":-73.6205475,"type":"low"},{"address":"Stationnement incitatif de Montarville (de Montarville)","latitude":45.6011636,"longitude":-73.4499935,"type":"low"},{"address":"Casgrain \/ Maguire","latitude":45.525933,"longitude":-73.595253,"type":"low"},{"address":"M\u00e9tro Verdun (Willibrord \/ de Verdun)","latitude":45.459488,"longitude":-73.572092,"type":"low"},{"address":"B\u00e9langer \/ des Galeries d'Anjou","latitude":45.597221,"longitude":-73.56279,"type":"low"},{"address":"Parc Maisonneuve (Viau \/ Sherbrooke)","latitude":45.5649368,"longitude":-73.5555911,"type":"low"},{"address":"Richardson \/ Montmorency","latitude":45.4849661,"longitude":-73.5603225,"type":"low"},{"address":"5e avenue \/ Rosemont","latitude":45.5499,"longitude":-73.583084,"type":"low"},{"address":"Alton-Goldbloom \/ Notre-Dame","latitude":45.545026,"longitude":-73.7378767,"type":"low"},{"address":"20e avenue \/ de Bellechasse","latitude":45.5599626,"longitude":-73.5769522,"type":"low"},{"address":"Elgar \/ de l'\u00cele-des-S\u0153urs","latitude":45.456823,"longitude":-73.546804,"type":"low"},{"address":"Robert-Bourassa \/ St-Maurice","latitude":45.4983705,"longitude":-73.5605559,"type":"low"},{"address":"Bennett \/ Ste-Catherine","latitude":45.553053,"longitude":-73.532427,"type":"low"},{"address":"Gare Montpellier (Muir \/ de la C\u00f4te-Vertu)","latitude":45.5237405,"longitude":-73.6716992,"type":"low"},{"address":"M\u00e9tro Acadie (de l'Acadie \/ Beaumont)","latitude":45.523575,"longitude":-73.623443,"type":"low"},{"address":"Place Longueuil","latitude":45.52841,"longitude":-73.517166,"type":"low"},{"address":"Chabot \/ Beaubien","latitude":45.544376,"longitude":-73.595645,"type":"low"},{"address":"St-Ambroise \/ Louis-Cyr","latitude":45.4751933,"longitude":-73.5809433,"type":"low"},{"address":"de Maisonneuve \/ Wood","latitude":45.4881979,"longitude":-73.5880705,"type":"low"},{"address":"de Lisieux \/ Jean-Talon","latitude":45.579349,"longitude":-73.581681,"type":"low"},{"address":"Rosemont \/ Viau","latitude":45.56833,"longitude":-73.566663,"type":"low"},{"address":"University \/ Milton","latitude":45.506511,"longitude":-73.576669,"type":"low"},{"address":"M\u00e9tro de l'\u00c9glise (Ross \/ de l'\u00c9glise)","latitude":45.462726,"longitude":-73.565959,"type":"low"},{"address":"Parc Ivan-Franko (33e avenue \/ Victoria)","latitude":45.43746,"longitude":-73.6935318,"type":"low"},{"address":"Desjardins \/ Ontario","latitude":45.551192,"longitude":-73.540873,"type":"low"},{"address":"M\u00e9tro Bonaventure (de la Gaucheti\u00e8re \/ de la Cath\u00e9drale)","latitude":45.4983122,"longitude":-73.567256,"type":"low"},{"address":"University \/ des Pins","latitude":45.508203,"longitude":-73.580112,"type":"low"},{"address":"Lajeunesse \/ Villeray","latitude":45.542119,"longitude":-73.622547,"type":"low"},{"address":"St-Joseph \/ 8e avenue Lachine","latitude":45.43155,"longitude":-73.67112,"type":"low"},{"address":"St-Timoth\u00e9 \/ Robin","latitude":45.5186318,"longitude":-73.5611299,"type":"low"},{"address":"Biblioth\u00e8que du Bois\u00e9 (Thimens \/ Todd)","latitude":45.504635,"longitude":-73.704432,"type":"low"},{"address":"Clark \/ de Li\u00e8ge","latitude":45.539984,"longitude":-73.638135,"type":"low"},{"address":"M\u00e9tro Longueuil - Universit\u00e9 de Sherbrooke","latitude":45.523319,"longitude":-73.520127,"type":"low"},{"address":"Gloria \/ Dollard","latitude":45.429711,"longitude":-73.6338834,"type":"low"},{"address":"Victoria \/ 18e avenue Lachine","latitude":45.435996,"longitude":-73.680111,"type":"low"},{"address":"Parc Plage","latitude":45.502828,"longitude":-73.527793,"type":"low"},{"address":"Laforest \/ Dudemaine","latitude":45.539806,"longitude":-73.687266,"type":"low"},{"address":"41e avenue \/ Victoria","latitude":45.440347,"longitude":-73.7023133,"type":"low"},{"address":"de C\u00f4me \/ Jean-Talon","latitude":45.588303,"longitude":-73.5778372,"type":"low"},{"address":"de Grosbois \/ Duchesneau","latitude":45.6112307,"longitude":-73.5312416,"type":"low"},{"address":"Christophe-Colomb \/ Gilford","latitude":45.5297028,"longitude":-73.5828853,"type":"low"},{"address":"Parc LaSalle (10e avenue \/ Victoria)","latitude":45.4380555,"longitude":-73.6727393,"type":"low"},{"address":"Metcalfe \/ St-Catherine","latitude":45.500832,"longitude":-73.572459,"type":"low"},{"address":"Pierre-de-Coubertin \/ Langelier","latitude":45.580315,"longitude":-73.535314,"type":"low"},{"address":"Stanley \/ Sherbrooke","latitude":45.501041,"longitude":-73.577178,"type":"low"},{"address":"Notre-Dame \/ Gauvin","latitude":45.500105,"longitude":-73.560199,"type":"low"},{"address":"Ateliers municipaux de St-Laurent (Cavendish \/ Poirier)","latitude":45.5061758,"longitude":-73.7111861,"type":"low"},{"address":"Gare Lachine (Sir George Simpson \/ 48e avenue)","latitude":45.4478213,"longitude":-73.7109178,"type":"low"},{"address":"Parc Aim\u00e9-L\u00e9onard (Gouin \/ Ste-Gertrude)","latitude":45.6083582,"longitude":-73.6385062,"type":"low"},{"address":"de Mortagne \/ Jean-Neveu","latitude":45.5692375,"longitude":-73.449499,"type":"low"},{"address":"St-Germain \/ Hochelaga","latitude":45.543699,"longitude":-73.553673,"type":"low"},{"address":"Parc Kirkland (des \u00c9rables \/ Boyer)","latitude":45.4460609,"longitude":-73.6507995,"type":"low"},{"address":"St-Sylvestre \/ St-Charles","latitude":45.5363238,"longitude":-73.5122496,"type":"low"},{"address":"des Ormeaux \/ de Grosbois","latitude":45.6059017,"longitude":-73.5343695,"type":"low"},{"address":"CHSLD Robert Cliche (de Bellechasse \/ 16e avenue)","latitude":45.557568,"longitude":-73.579191,"type":"low"},{"address":"Logan \/ d'Iberville","latitude":45.53057,"longitude":-73.54913,"type":"low"},{"address":"des Ormeaux \/ Notre-Dame","latitude":45.5992655,"longitude":-73.5122607,"type":"low"},{"address":"Chabot \/ Laurier","latitude":45.5368558,"longitude":-73.5793731,"type":"low"},{"address":"Palm \/ St-R\u00e9mi","latitude":45.470366,"longitude":-73.589816,"type":"low"},{"address":"Lamarre \/ Lavall\u00e9e","latitude":45.5337477,"longitude":-73.4859958,"type":"low"},{"address":"Letourneux \/ Hochelaga","latitude":45.5546589,"longitude":-73.546603,"type":"low"},{"address":"Gordon \/ Wellington","latitude":45.461078,"longitude":-73.567307,"type":"low"},{"address":"Monk \/ Biencourt","latitude":45.4586632,"longitude":-73.5960227,"type":"low"},{"address":"Parc Loyola (Doherty \/ Somerled)","latitude":45.4597611,"longitude":-73.6447746,"type":"low"},{"address":"Parc Charleroi (Alfred \/ Louis-Francoeur)","latitude":45.5995347,"longitude":-73.6236025,"type":"low"},{"address":"De Calli\u00e8res \/ d'Auvergne","latitude":45.593422,"longitude":-73.6690217,"type":"low"},{"address":"Brittany \/ Ainsley","latitude":45.5258899,"longitude":-73.6500344,"type":"low"},{"address":"Parc Ernest-Rouleau (Gouin)","latitude":45.6313127,"longitude":-73.616315,"type":"low"},{"address":"Parc Chopin (Dumouchel \/ Tessier)","latitude":45.5707266,"longitude":-73.737086,"type":"low"},{"address":"Keller \/ Cousineau","latitude":45.5235502,"longitude":-73.7138857,"type":"low"},{"address":"Le Corbusier \/ St-Martin O","latitude":45.5650067,"longitude":-73.7319054,"type":"low"},{"address":"Parc St-Sacrement (des Seigneurs \/ St-Sacrement)","latitude":45.7023493,"longitude":-73.639578,"type":"low"},{"address":"du Souvenir \/ Chomedey","latitude":45.551886,"longitude":-73.74444,"type":"low"},{"address":"Parc Chamberland (Dorais \/ de l'\u00c9glise)","latitude":45.502989,"longitude":-73.689113,"type":"low"},{"address":"Bloomfield \/ Jean-Talon","latitude":45.5274603,"longitude":-73.6241752,"type":"low"},{"address":"Parc de Beaus\u00e9jour (Gouin \/ Henri-d'Arles)","latitude":45.526765,"longitude":-73.730423,"type":"low"},{"address":"McNamara \/ St-Martin O","latitude":45.5712036,"longitude":-73.7235188,"type":"low"},{"address":"Square Nelligan (des Appalaches \/ Alexis-Nihon)","latitude":45.5143182,"longitude":-73.7079982,"type":"low"},{"address":"Souligny \/ Desmarteau","latitude":45.6046208,"longitude":-73.5159963,"type":"low"},{"address":"Saint-Denis\/de Maisonneuve","latitude":45.5144049,"longitude":-73.5618111,"type":"low"},{"address":"Parc Luigi-Pirandello (de Bretagne \/ Jean-Rivard)","latitude":45.5794057,"longitude":-73.6025888,"type":"low"},{"address":"90e Avenue \/ Boulevard L\u00e9vesque O","latitude":45.5312146,"longitude":-73.747353,"type":"low"},{"address":"Langelier \/ Marie-Victorin","latitude":45.6145192,"longitude":-73.6122447,"type":"low"},{"address":"Hamel \/ Sauv\u00e9","latitude":45.560762,"longitude":-73.650561,"type":"low"},{"address":"H\u00f4pital Sacr\u00e9-Coeur (Forbes)","latitude":45.5319436,"longitude":-73.7136054,"type":"low"},{"address":"Maisonneuve \/ Wood","latitude":45.4881979,"longitude":-73.5880705,"type":"low"},{"address":"O'Brien \/ Poirier","latitude":45.52246,"longitude":-73.691564,"type":"low"},{"address":"Parc Delorme (Malouin \/ Lafert\u00e9)","latitude":45.5904902,"longitude":-73.5902694,"type":"low"},{"address":"Jeanne-Mance \/ St-Martin O","latitude":45.5574215,"longitude":-73.7480604,"type":"low"},{"address":"Hillside \/ Ste-Catherine","latitude":45.482826,"longitude":-73.590843,"type":"low"},{"address":"de la Commune \/ Queen","latitude":45.496842,"longitude":-73.5528928,"type":"low"},{"address":"de la Peltrie \/ de la C\u00f4te-des-Neiges","latitude":45.4997974,"longitude":-73.6301753,"type":"low"},{"address":"Aird \/ Pierre-de-Coubertin","latitude":45.5589253,"longitude":-73.5480573,"type":"low"},{"address":"Parc MacDonald (Clanranald \/ Isabella)","latitude":45.4826927,"longitude":-73.6348128,"type":"low"},{"address":"de l'Hotel-de-Ville \/ Ontario","latitude":45.5137452,"longitude":-73.5666633,"type":"low"},{"address":"Parc Beaulac (rue \u00c9lizabeth)","latitude":45.5200557,"longitude":-73.6779515,"type":"low"},{"address":"Robert-Bourassa \/ Ren\u00e9-L\u00e9vesque","latitude":45.5021829,"longitude":-73.5682538,"type":"low"},{"address":"du Canal \/ McLaughlin","latitude":45.4297026,"longitude":-73.6694868,"type":"low"},{"address":"Duchesneau \/ de Marseille","latitude":45.6096263,"longitude":-73.522739,"type":"low"},{"address":"Parc Laurier (Laurier \/ Dubuc)","latitude":45.5336105,"longitude":-73.4737462,"type":"low"},{"address":"Plymouth \/ Chem.Eden","latitude":45.5064888,"longitude":-73.6604789,"type":"low"},{"address":"Parc Ottawa (de Belleville \/ Fleury)","latitude":45.58116,"longitude":-73.6412434,"type":"low"},{"address":"Bassin olympique (Chemin du Chenal le Moyne)","latitude":45.5169025,"longitude":-73.5272455,"type":"low"},{"address":"Pierre-P\u00e9ladeau \/ du Centropolis","latitude":45.5625118,"longitude":-73.7437065,"type":"low"},{"address":"du Tricentenaire \/ Prince-Albert","latitude":45.649546,"longitude":-73.491916,"type":"low"},{"address":"Bloomfield \/ Ball","latitude":45.5299594,"longitude":-73.632946,"type":"low"},{"address":"Chabot \/ de Bellechasse","latitude":45.54257,"longitude":-73.592144,"type":"low"},{"address":"Natatorium (LaSalle \/ Rolland)","latitude":45.444547,"longitude":-73.575091,"type":"low"},{"address":"Tolhurst \/ Fleury","latitude":45.544149,"longitude":-73.66752,"type":"low"},{"address":"du Parc \/ Fran\u00e7ois-Foucault","latitude":45.6057854,"longitude":-73.66274,"type":"low"},{"address":"Parc Lacharit\u00e9 (Latour \/ Forget)","latitude":45.4177375,"longitude":-73.6233855,"type":"low"},{"address":"St-Charles \/ Montarville","latitude":45.533682,"longitude":-73.515261,"type":"low"},{"address":"Parc Wilfrid-Bastien (Lacordaire \/ des Galets)","latitude":45.5864002,"longitude":-73.5952181,"type":"low"},{"address":"Laird \/ Glencoe","latitude":45.5061916,"longitude":-73.642308,"type":"low"},{"address":"de Grenoble \/ de Cassis","latitude":45.5788972,"longitude":-73.7049271,"type":"low"},{"address":"Biblioth\u00e8que d'Ahuntsic (Lajeunesse \/ Fleury)","latitude":45.5534001,"longitude":-73.6622545,"type":"low"},{"address":"Pratt \/ Bates","latitude":45.5169478,"longitude":-73.6263156,"type":"low"},{"address":"M\u00e9tro St-Laurent d\u00e9p\u00f4t 2 (de Maisonneuve \/ St-Laurent)","latitude":45.5107097,"longitude":-73.5653543,"type":"low"},{"address":"Gare du Ruisseau (Dutrisac \/ Henri-Bourassa)","latitude":45.5281437,"longitude":-73.6925454,"type":"low"},{"address":"Durocher \/ Beaumont","latitude":45.5280002,"longitude":-73.6192358,"type":"low"},{"address":"Crescent \/ de Maisonneuve N\/E","latitude":45.4981204,"longitude":-73.5775959,"type":"low"},{"address":"de Mentana \/ Gilford","latitude":45.528724,"longitude":-73.583859,"type":"low"},{"address":"M\u00e9tro Cadillac (Cadillac \/ Sherbrooke)","latitude":45.5768333,"longitude":-73.5464742,"type":"low"},{"address":"Parc des Hirondelles (Fleury \/ Andr\u00e9-Jobin)","latitude":45.5760003,"longitude":-73.6467648,"type":"low"},{"address":"Jardin Botanique (Pie-IX \/ Sherbrooke)","latitude":45.554947,"longitude":-73.555295,"type":"low"},{"address":"Notre-Dame-de-Gr\u00e2ce \/ D\u00e9carie","latitude":45.477353,"longitude":-73.615372,"type":"low"},{"address":"M\u00e9tro Angrignon (Lamont \/  des Trinitaires)","latitude":45.44691,"longitude":-73.60363,"type":"low"},{"address":"St-Christophe \/ Ren\u00e9-L\u00e9vesque","latitude":45.5149464,"longitude":-73.5562329,"type":"low"},{"address":"Quai Yvon-Julien (Marie-Victorin \/ de Montarville)","latitude":45.606718,"longitude":-73.4569203,"type":"low"},{"address":"Notre-Dame \/ de la Montagne","latitude":45.493029,"longitude":-73.564818,"type":"low"},{"address":"Parc Maurice-B\u00e9langer (H\u00e9bert \/ Denomm\u00e9e)","latitude":45.5877138,"longitude":-73.6317182,"type":"low"},{"address":"Parc Stoney-Point (St-Joseph \/ 47e avenue)","latitude":45.4365683,"longitude":-73.7083697,"type":"low"},{"address":"Louisbourg \/ O'Brien","latitude":45.5303945,"longitude":-73.7039322,"type":"low"},{"address":"B\u00e9langer \/ St-Laurent","latitude":45.5331335,"longitude":-73.6147285,"type":"low"},{"address":"Parc du Bois-Franc (de l'\u00c9quateur \/ des Andes)","latitude":45.5131776,"longitude":-73.7130609,"type":"low"},{"address":"de Mentana \/ Laurier","latitude":45.53045,"longitude":-73.587638,"type":"low"},{"address":"M\u00e9tro Papineau (Cartier \/ Ste-Catherine)","latitude":45.52353,"longitude":-73.55199,"type":"low"},{"address":"M\u00e9tro Mont-Royal (Pontiac \/ du Mont-Royal)","latitude":45.5239839,"longitude":-73.5830784,"type":"low"},{"address":"41e avenue \/ Rosemont","latitude":45.57179,"longitude":-73.564315,"type":"low"},{"address":"Louis-H\u00e9bert \/ B\u00e9langer","latitude":45.551585,"longitude":-73.599165,"type":"low"},{"address":"Legrand \/ Cartier","latitude":45.552298,"longitude":-73.7073827,"type":"low"},{"address":"Drummond \/ Ste-Catherine","latitude":45.498639,"longitude":-73.574227,"type":"low"},{"address":"Champdor\u00e9 \/ de Lorimier","latitude":45.5668693,"longitude":-73.6410168,"type":"low"},{"address":"Ste-Claire \/ Pierre-T\u00e9treault","latitude":45.6019133,"longitude":-73.5244185,"type":"low"},{"address":"M\u00e9tro de la Concorde (L\u00e9o-Lacombe)","latitude":45.5604899,"longitude":-73.7091851,"type":"low"},{"address":"Henri-Julien \/ de Bellechasse","latitude":45.5295036,"longitude":-73.6048646,"type":"low"},{"address":"1\u00e8re avenue \/ Rosemont","latitude":45.5478,"longitude":-73.584867,"type":"low"},{"address":"Notre-Dame  \/ St-Martin","latitude":45.4883019,"longitude":-73.5687178,"type":"low"},{"address":"St-Urbain \/ Laurier","latitude":45.5216462,"longitude":-73.5936677,"type":"low"},{"address":"St-Antoine \/ Jean-Paul Riopelle","latitude":45.5029397,"longitude":-73.5606404,"type":"low"},{"address":"Parc Van Horne (de la Peltrie \/ de Westbury)","latitude":45.4904723,"longitude":-73.6385324,"type":"low"},{"address":"Queen \/ Wellington","latitude":45.497605,"longitude":-73.55535,"type":"low"},{"address":"Ste-Catherine \/ Sanguinet","latitude":45.5128938,"longitude":-73.5612479,"type":"low"},{"address":"35e avenue \/ Beaubien","latitude":45.570081,"longitude":-73.573047,"type":"low"},{"address":"Laurier \/ de Bordeaux","latitude":45.537205,"longitude":-73.579254,"type":"low"},{"address":"Dollard \/ Bernard","latitude":45.516783,"longitude":-73.611423,"type":"low"},{"address":"16e avenue \/ St-Joseph","latitude":45.55287,"longitude":-73.565631,"type":"low"},{"address":"Parc P\u00e8re-Marquette (Chambord \/ Rosemont)","latitude":45.537088,"longitude":-73.593219,"type":"low"},{"address":"Fairmount \/ Hutchison","latitude":45.5196243,"longitude":-73.598312,"type":"low"},{"address":"Jogues \/ Allard","latitude":45.45002,"longitude":-73.600306,"type":"low"},{"address":"\u00c9douard-Montpetit \/ de Stirling","latitude":45.50723,"longitude":-73.615085,"type":"low"},{"address":"Parc du P\u00e9lican (2e avenue \/ St-Joseph)","latitude":45.544513,"longitude":-73.571564,"type":"low"},{"address":"Kirkfield \/ de Chambois","latitude":45.5129332,"longitude":-73.6338902,"type":"low"},{"address":"Place des Festivals ( du Pr\u00e9sident-Kennedy \/ de Bleury)","latitude":45.5076439,"longitude":-73.569324,"type":"low"},{"address":"des \u00c9cores \/ Beaubien","latitude":45.5475364,"longitude":-73.5926726,"type":"low"},{"address":"Casino de Montr\u00e9al","latitude":45.506373,"longitude":-73.524577,"type":"low"},{"address":"Mozart \/ St-Laurent","latitude":45.53318,"longitude":-73.61544,"type":"low"},{"address":"Drolet \/ Beaubien","latitude":45.533348,"longitude":-73.605834,"type":"low"},{"address":"St-Andr\u00e9 \/ Rachel","latitude":45.5243532,"longitude":-73.5759665,"type":"low"},{"address":"Victoria \/ de Maisonneuve","latitude":45.477429,"longitude":-73.600169,"type":"low"},{"address":"St-Jacques \/ Guy","latitude":45.4913669,"longitude":-73.5701072,"type":"low"},{"address":"M\u00e9tro Cr\u00e9mazie (Cr\u00e9mazie \/ Lajeunesse)","latitude":45.546408,"longitude":-73.638428,"type":"low"},{"address":"M\u00e9tro Assomption (Chauveau \/ de l'Assomption)","latitude":45.569789,"longitude":-73.548081,"type":"low"},{"address":"St-Dominique \/ Gounod","latitude":45.538738,"longitude":-73.628022,"type":"low"},{"address":"Boyer \/ Everett","latitude":45.5432845,"longitude":-73.6162861,"type":"low"},{"address":"de Castelnau \/ Lajeunesse","latitude":45.5403962,"longitude":-73.6168179,"type":"low"},{"address":"Ren\u00e9-L\u00e9vesque \/ Papineau","latitude":45.5209208,"longitude":-73.5499048,"type":"low"},{"address":"McGill \/ Wellington","latitude":45.4994477,"longitude":-73.5548991,"type":"low"},{"address":"La Tour de Montr\u00e9al (Pierre-de-Coubertin \/ Bennett)","latitude":45.5597053,"longitude":-73.5515544,"type":"low"},{"address":"St-Marc \/ Sherbrooke","latitude":45.494514,"longitude":-73.583368,"type":"low"},{"address":"Sanguinet \/ de Maisonneuve","latitude":45.513405,"longitude":-73.562594,"type":"low"},{"address":"de l'\u00c9glise \/ Bannantyne","latitude":45.463254,"longitude":-73.575879,"type":"low"},{"address":"de la Petrie \/de la Cote-des-Neiges","latitude":45.4996658,"longitude":-73.6302906,"type":"low"},{"address":"St-Hubert \/ Laurier","latitude":45.52931,"longitude":-73.588657,"type":"low"},{"address":"Boyer \/ St-Joseph","latitude":45.5295423,"longitude":-73.5846072,"type":"low"},{"address":"Graham \/ Wicksteed","latitude":45.5169365,"longitude":-73.640483,"type":"low"},{"address":"Beaudry \/ Sherbrooke","latitude":45.523035,"longitude":-73.565395,"type":"low"},{"address":"de L\u00e9ry \/ Sherbrooke","latitude":45.5409997,"longitude":-73.5582626,"type":"low"},{"address":"M\u00e9tro Place Saint-Henri (St-Ferdinand \/ St-Jacques)","latitude":45.4772809,"longitude":-73.5873042,"type":"low"},{"address":"M\u00e9tro Monk (Allard \/ Beaulieu)","latitude":45.450851,"longitude":-73.594027,"type":"low"},{"address":"M\u00e9tro Viau ( Pierre-de-Coubertin \/ Viau)","latitude":45.5622187,"longitude":-73.5462677,"type":"low"},{"address":"Terminus Newman (Airlie \/ Lafleur)","latitude":45.4250597,"longitude":-73.6495992,"type":"low"},{"address":"Gilford \/ des \u00c9rables","latitude":45.5375266,"longitude":-73.5751244,"type":"low"},{"address":"de Maisonneuve \/ Mansfield (sud-est)","latitude":45.5022935,"longitude":-73.5733064,"type":"low"},{"address":"Beaubien \/ 8e avenue","latitude":45.553457,"longitude":-73.587842,"type":"low"},{"address":"Regina \/ de Verdun","latitude":45.467369,"longitude":-73.570769,"type":"low"},{"address":"Casgrain \/ St-Viateur","latitude":45.527513,"longitude":-73.598791,"type":"low"},{"address":"Ste-Catherine \/ St-Cl\u00e9ment","latitude":45.5567173,"longitude":-73.5302496,"type":"low"},{"address":"Drummond \/ Sherbrooke","latitude":45.5003924,"longitude":-73.578168,"type":"low"},{"address":"M\u00e9tro Sauv\u00e9 (Berri \/ Sauv\u00e9)","latitude":45.550692,"longitude":-73.656367,"type":"low"},{"address":"Boyer \/Laurier","latitude":45.5303709,"longitude":-73.5865103,"type":"low"},{"address":"Chambord \/ Fleury","latitude":45.559828,"longitude":-73.658325,"type":"low"},{"address":"Biblioth\u00e8que Jean-Corbeil (Goncourt \/ Place Montrichard)","latitude":45.6027276,"longitude":-73.5579303,"type":"low"},{"address":"de la Montagne \/ Ste-Catherine","latitude":45.4977406,"longitude":-73.5748494,"type":"low"},{"address":"St-Cyril \/ Wiseman","latitude":45.5208548,"longitude":-73.6157396,"type":"low"},{"address":"St-Mathieu \/ Sherbrooke","latitude":45.495789,"longitude":-73.582596,"type":"low"},{"address":"de Chateaubriand \/ Jarry","latitude":45.545955,"longitude":-73.626992,"type":"low"},{"address":"de Bullion \/ du Mont-Royal","latitude":45.521751,"longitude":-73.585268,"type":"low"},{"address":"St-Dominique \/ de Bellechasse","latitude":45.5295036,"longitude":-73.6048646,"type":"low"},{"address":"Melville \/ de Maisonneuve","latitude":45.4818402,"longitude":-73.595379,"type":"low"},{"address":"M\u00e9tro Rosemont (de St-Vallier \/ Rosemont)","latitude":45.531783,"longitude":-73.597793,"type":"low"},{"address":"Parc F\u00e9lix-Leclerc (Fran\u00e7ois-Boivin \/ St-Zotique)","latitude":45.591455,"longitude":-73.5627553,"type":"low"},{"address":"Notre-Dame \/ Guy","latitude":45.4900138,"longitude":-73.5672063,"type":"low"},{"address":"Faillon \/ St-Denis","latitude":45.5398641,"longitude":-73.6203128,"type":"low"},{"address":"Ste-Catherine \/ Dezery","latitude":45.539385,"longitude":-73.541,"type":"low"},{"address":"Henri-Julien \/ Laurier","latitude":45.525843,"longitude":-73.590399,"type":"low"},{"address":"Poupart \/ Ontario","latitude":45.531939,"longitude":-73.553439,"type":"low"},{"address":"de l'\u00c9glise \/ de Verdun","latitude":45.463001,"longitude":-73.571569,"type":"low"},{"address":"de Monkland \/ Girouard","latitude":45.477107,"longitude":-73.621438,"type":"low"},{"address":"de Bleury \/ de Maisonneuve","latitude":45.5070965,"longitude":-73.5684416,"type":"low"},{"address":"Parc Jeanne-Mance (monument sir George-\u00c9tienne-Cartier)","latitude":45.5148749,"longitude":-73.5848641,"type":"low"},{"address":"Square Viger (Berri \/ Viger)","latitude":45.5122121,"longitude":-73.5546289,"type":"low"},{"address":"Maguire \/ Henri-Julien","latitude":45.527041,"longitude":-73.593471,"type":"low"},{"address":"Marquette \/ Gillford","latitude":45.533815,"longitude":-73.5789049,"type":"low"},{"address":"St-Dominique \/ Bernard","latitude":45.527933,"longitude":-73.601223,"type":"low"},{"address":"Fullum \/ Gilford","latitude":45.539224,"longitude":-73.573837,"type":"low"},{"address":"Ste-Catherine \/ St-Laurent","latitude":45.5098134,"longitude":-73.5638952,"type":"low"},{"address":"Marie-Anne \/ St-Hubert","latitude":45.524683,"longitude":-73.578897,"type":"low"},{"address":"de Maisonneuve \/ Greene","latitude":45.486971,"longitude":-73.589293,"type":"low"},{"address":"St-Antoine \/ de la Montagne","latitude":45.4953717,"longitude":-73.5685891,"type":"low"},{"address":"Bourget \/ St-Jacques","latitude":45.4808458,"longitude":-73.5838616,"type":"low"},{"address":"Clark \/ Ontario","latitude":45.5106246,"longitude":-73.5669033,"type":"low"},{"address":"Ste-Catherine \/ Drummond","latitude":45.4985885,"longitude":-73.5742781,"type":"low"},{"address":"Boyer \/ Jean-Talon","latitude":45.541586,"longitude":-73.612481,"type":"low"},{"address":"St-Zotique \/ Clark","latitude":45.531401,"longitude":-73.612674,"type":"low"},{"address":"des \u00c9rables \/ Dandurand","latitude":45.5413694,"longitude":-73.583974,"type":"low"},{"address":"de Bellechasse \/ de Lanaudi\u00e8re","latitude":45.5393536,"longitude":-73.5953736,"type":"low"},{"address":"March\u00e9 Jean-Talon (Henri-Julien \/ Jean-Talon)","latitude":45.536785,"longitude":-73.614888,"type":"low"},{"address":"Molson \/ Beaubien","latitude":45.549686,"longitude":-73.591155,"type":"low"},{"address":"Jeanne-Mance \/ Ren\u00e9-L\u00e9vesque","latitude":45.506371,"longitude":-73.564201,"type":"low"},{"address":"M\u00e9tro Snowdon (de Westbury \/ Queen-Mary)","latitude":45.485385,"longitude":-73.628142,"type":"low"},{"address":"de Gasp\u00e9 \/ Marmier","latitude":45.529686,"longitude":-73.601728,"type":"low"},{"address":"Aylmer \/ Sherbrooke","latitude":45.506587,"longitude":-73.573299,"type":"low"},{"address":"Letourneux \/ Ste-Catherine","latitude":45.5507836,"longitude":-73.5341,"type":"low"},{"address":"Hutchison \/ Van Horne","latitude":45.524942,"longitude":-73.610606,"type":"low"},{"address":"Lacombe \/ Victoria","latitude":45.490628,"longitude":-73.628878,"type":"low"},{"address":"Lincoln \/ du Fort","latitude":45.493034,"longitude":-73.583836,"type":"low"},{"address":"Maguire \/ St-Laurent","latitude":45.524628,"longitude":-73.595811,"type":"low"},{"address":"Montcalm \/ Ontario","latitude":45.521081,"longitude":-73.562275,"type":"low"},{"address":"Duke \/ Nazareth","latitude":45.4957224,"longitude":-73.5546134,"type":"low"},{"address":"Fortune \/ Wellington","latitude":45.477923,"longitude":-73.559038,"type":"low"},{"address":"Place du Canada (Peel \/ des Canadiens-de-Montr\u00e9al)","latitude":45.4978835,"longitude":-73.5685676,"type":"low"},{"address":"de l'H\u00f4tel-de-Ville \/ Ste-Catherine","latitude":45.51166,"longitude":-73.562136,"type":"low"},{"address":"de Kent \/ de la C\u00f4te-des-Neiges","latitude":45.501449,"longitude":-73.633051,"type":"low"},{"address":"de Gasp\u00e9 \/ Beaubien","latitude":45.5319579,"longitude":-73.607001,"type":"low"},{"address":"Harvard \/ de Monkland","latitude":45.474565,"longitude":-73.624036,"type":"low"},{"address":"Valois \/ Ste-Catherine","latitude":45.54523,"longitude":-73.53725,"type":"low"},{"address":"des Jockeys \/ D\u00e9carie","latitude":45.4940443,"longitude":-73.6544949,"type":"low"},{"address":"St-Andr\u00e9 \/ Ontario","latitude":45.51889,"longitude":-73.56353,"type":"low"},{"address":"St-Hubert \/ Ren\u00e9-Levesque","latitude":45.5143692,"longitude":-73.556487,"type":"low"},{"address":"M\u00e9tro St-Michel (Shaughnessy \/ St-Michel)","latitude":45.559199,"longitude":-73.599658,"type":"low"},{"address":"Ropery \/ Augustin-Cantin","latitude":45.480914,"longitude":-73.56846,"type":"low"},{"address":"de Maisonneuve \/ Mansfield (sud)","latitude":45.502145,"longitude":-73.573427,"type":"low"},{"address":"de Bordeaux \/ Jean-Talon","latitude":45.549755,"longitude":-73.605566,"type":"low"},{"address":"M\u00e9tro Frontenac (Ontario \/ du Havre)","latitude":45.533706,"longitude":-73.552179,"type":"low"},{"address":"Parc des Rapides (LaSalle \/ 6e avenue)","latitude":45.429471,"longitude":-73.593099,"type":"low"},{"address":"Querbes \/ Laurier","latitude":45.51754,"longitude":-73.597832,"type":"low"},{"address":"Jeanne-Mance \/ Fairmount","latitude":45.5209837,"longitude":-73.5972807,"type":"low"},{"address":"Ottawa \/ William","latitude":45.489727,"longitude":-73.564063,"type":"low"},{"address":"Rielle \/ Wellington","latitude":45.4601559,"longitude":-73.5670012,"type":"low"},{"address":"Biblioth\u00e8que de Verdun (Brown \/ Bannantyne)","latitude":45.448262,"longitude":-73.577856,"type":"low"},{"address":"Gilford \/ de Br\u00e9beuf","latitude":45.530816,"longitude":-73.581626,"type":"low"},{"address":"CHSLD St-Michel (8e avenue \/ Jarry)","latitude":45.5616903,"longitude":-73.610512,"type":"low"},{"address":"St-Denis \/ de Maisonneuve","latitude":45.514404,"longitude":-73.561919,"type":"low"},{"address":"8e avenue \/ Everett","latitude":45.5648113,"longitude":-73.5958041,"type":"low"},{"address":"Jeanne-Mance \/ Beaubien","latitude":45.52765,"longitude":-73.6123,"type":"low"},{"address":"Parc Nicolas-Tillemont (des \u00c9rables \/ Villeray)","latitude":45.5546365,"longitude":-73.6125522,"type":"low"},{"address":"M\u00e9tro Langelier (Langelier \/ Sherbrooke)","latitude":45.582847,"longitude":-73.542476,"type":"low"},{"address":"6e avenue \/ Villeray","latitude":45.5587396,"longitude":-73.6058904,"type":"low"},{"address":"Lucien L'Allier \/ St-Jacques","latitude":45.493569,"longitude":-73.568576,"type":"low"},{"address":"Henri-Julien \/ de Castelnau","latitude":45.537891,"longitude":-73.618215,"type":"low"},{"address":"Cartier \/ Dandurand","latitude":45.539236,"longitude":-73.585946,"type":"low"},{"address":"M\u00e9tro Universit\u00e9 de Montr\u00e9al (\u00c9douard-Montpetit \/ Louis-Collin)","latitude":45.50367,"longitude":-73.61848,"type":"low"},{"address":"Quai de la navette fluviale","latitude":45.513741,"longitude":-73.538382,"type":"low"},{"address":"Canning \/ Notre-Dame","latitude":45.486319,"longitude":-73.570233,"type":"low"},{"address":"Chabot \/ Villeray","latitude":45.5522894,"longitude":-73.6130065,"type":"low"},{"address":"Coolbrook \/ Queen-Mary","latitude":45.482852,"longitude":-73.630344,"type":"low"},{"address":"Li\u00e9bert \/ Hochelaga","latitude":45.595875,"longitude":-73.523528,"type":"low"},{"address":"M\u00e9tro Jolicoeur (de S\u00e8ve \/ Drake)","latitude":45.4560855,"longitude":-73.5819371,"type":"low"},{"address":"Louis-H\u00e9mon \/ Jean-Talon","latitude":45.5517743,"longitude":-73.6034784,"type":"low"},{"address":"Carrefour Angrignon (Angrignon \/ Newman)","latitude":45.4484341,"longitude":-73.6129455,"type":"low"},{"address":"26e avenue \/ Beaubien","latitude":45.564944,"longitude":-73.577639,"type":"low"},{"address":"Ontario \/ Ville-Marie","latitude":45.5600196,"longitude":-73.5349345,"type":"low"},{"address":"Fullum \/ Marie-Anne","latitude":45.5365054,"longitude":-73.5680392,"type":"low"},{"address":"des \u00c9rables \/ Laurier","latitude":45.5384608,"longitude":-73.5776791,"type":"low"},{"address":"Place Rodolphe-Rousseau (Gohier \/ \u00c9douard-Laurin)","latitude":45.5129939,"longitude":-73.6824985,"type":"low"},{"address":"Pierre-de-Coubertin \/ Aird","latitude":45.5590311,"longitude":-73.5483035,"type":"low"},{"address":"de la Roche \/ B\u00e9langer","latitude":45.54167,"longitude":-73.607604,"type":"low"},{"address":"Papineau \/ \u00c9mile-Journault","latitude":45.559884,"longitude":-73.633568,"type":"low"},{"address":"Masson \/ Molson","latitude":45.5443459,"longitude":-73.5769769,"type":"low"},{"address":"Davaar \/ de la C\u00f4te-Ste-Catherine","latitude":45.514379,"longitude":-73.610871,"type":"low"},{"address":"de la Roche \/  de Bellechasse","latitude":45.537159,"longitude":-73.597476,"type":"low"},{"address":"St-Mathieu \/ Ren\u00e9-Levesque","latitude":45.492134,"longitude":-73.5763836,"type":"low"},{"address":"Guizot \/ St-Laurent","latitude":45.539663,"longitude":-73.634475,"type":"low"},{"address":"M\u00e9tro Honor\u00e9-Beaugrand (Sherbrooke \/ Honor\u00e9-Beaugrand)","latitude":45.596797,"longitude":-73.535179,"type":"low"},{"address":"M\u00e9tro Radisson (Sherbrooke \/ des Groseilliers)","latitude":45.589175,"longitude":-73.539656,"type":"low"},{"address":"des Carri\u00e8res \/ Marquette","latitude":45.5385795,"longitude":-73.5884857,"type":"low"},{"address":"Nicolet \/ Sherbrooke","latitude":45.549695,"longitude":-73.554647,"type":"low"},{"address":"St-Nicolas \/ Place d'Youville","latitude":45.501967,"longitude":-73.555153,"type":"low"},{"address":"Aylmer \/ Ste-Catherine","latitude":45.5043468,"longitude":-73.5689485,"type":"low"},{"address":"St-Joseph Lachine \/ 21e avenue","latitude":45.4335212,"longitude":-73.6835432,"type":"low"},{"address":"St-Jacques \/ St-Laurent","latitude":45.506421,"longitude":-73.556466,"type":"low"},{"address":"Chabanel \/ Tolhurst","latitude":45.540105,"longitude":-73.6534703,"type":"low"},{"address":"Everett \/ Garnier","latitude":45.5475815,"longitude":-73.6122085,"type":"low"},{"address":"Hamilton \/ Jolicoeur","latitude":45.456355,"longitude":-73.597557,"type":"low"},{"address":"Place Valois (Valois \/ Ontario)","latitude":45.5471414,"longitude":-73.5433951,"type":"low"},{"address":"H\u00f4pital G\u00e9n\u00e9ral Juif (de la C\u00f4te-Ste-Catherine \/ L\u00e9gar\u00e9)","latitude":45.4962414,"longitude":-73.6298387,"type":"low"},{"address":"Montcalm \/ de Maisonneuve","latitude":45.519139,"longitude":-73.557866,"type":"low"},{"address":"BAnQ (Berri)","latitude":45.5160139,"longitude":-73.5629196,"type":"low"},{"address":"St-Laurent \/ Pl. du March\u00e9","latitude":45.5092896,"longitude":-73.562416,"type":"low"},{"address":"M\u00e9tro C\u00f4te-des-Neiges (Jean-Brillant \/ de la C\u00f4te-des-Neiges)","latitude":45.496098,"longitude":-73.621733,"type":"low"},{"address":"du Champ-de-Mars \/ Gosford","latitude":45.509655,"longitude":-73.554009,"type":"low"},{"address":"Parc de Dieppe","latitude":45.5018635,"longitude":-73.543961,"type":"low"},{"address":"du President-Kennedy \/ Union","latitude":45.505011,"longitude":-73.572028,"type":"low"},{"address":"St-Gr\u00e9goire \/ Christophe-Colomb","latitude":45.5325974,"longitude":-73.5901111,"type":"low"},{"address":"Ontario \/ Sicard","latitude":45.556262,"longitude":-73.537441,"type":"low"},{"address":"Milton \/ St-Laurent","latitude":45.5129039,"longitude":-73.5705918,"type":"low"},{"address":"Charles-Daoust \/ 75e avenue","latitude":45.5425059,"longitude":-73.7409532,"type":"low"},{"address":"de Mentana \/ Marie-Anne","latitude":45.526027,"longitude":-73.577859,"type":"low"},{"address":"M\u00e9tro Charlevoix (Centre \/ Charlevoix)","latitude":45.478228,"longitude":-73.569651,"type":"low"},{"address":"Parc Baldwin (Fullum \/ Sherbrooke)","latitude":45.5340705,"longitude":-73.5626507,"type":"low"},{"address":"de Maisonneuve \/ Mansfield (nord)","latitude":45.502311,"longitude":-73.5733635,"type":"low"},{"address":"Murray \/ Wellington","latitude":45.4921472,"longitude":-73.5579836,"type":"low"},{"address":"de Bellechasse \/ de St-Vallier","latitude":45.53341,"longitude":-73.601124,"type":"low"},{"address":"du Havre \/ Hochelaga","latitude":45.535753,"longitude":-73.557941,"type":"low"},{"address":"M\u00e9tro Parc  (Hutchison \/ Ogilvy)","latitude":45.5303513,"longitude":-73.6243924,"type":"low"},{"address":"Parc d'Antioche (Place d'Antioche \/ St-Zotique)","latitude":45.595352,"longitude":-73.55859,"type":"low"},{"address":"Villeneuve \/ du Parc","latitude":45.51829,"longitude":-73.59235,"type":"low"},{"address":"Omer-Lavall\u00e9e \/ du Midway","latitude":45.545776,"longitude":-73.562175,"type":"low"},{"address":"Gauthier \/ de Lorimier","latitude":45.531674,"longitude":-73.565413,"type":"low"},{"address":"St-Jacques \/ des Seigneurs","latitude":45.489186,"longitude":-73.5719,"type":"low"},{"address":"29e avenue \/ St-Zotique","latitude":45.567766,"longitude":-73.579688,"type":"low"},{"address":"M\u00e9tro Villa-Maria (de Monkland \/ D\u00e9carie)","latitude":45.4789684,"longitude":-73.6195993,"type":"low"},{"address":"Mont-Royal \/ St-Denis","latitude":45.5238768,"longitude":-73.5830489,"type":"low"},{"address":"Gare Bois-de-Boulogne","latitude":45.539726,"longitude":-73.677165,"type":"low"},{"address":"LaSalle \/ Godin","latitude":45.446934,"longitude":-73.572199,"type":"low"},{"address":"M\u00e9tro Henri-Bourassa (Henri-Bourassa \/ Millen)","latitude":45.556751,"longitude":-73.667162,"type":"low"},{"address":"M\u00e9tro Lionel-Groulx (St-Jacques \/ Atwater)","latitude":45.4836285,"longitude":-73.5797026,"type":"low"},{"address":"St-Alexandre \/ Ste-Catherine","latitude":45.505359,"longitude":-73.567741,"type":"low"},{"address":"U. Concordia - Campus Loyola (Sherbrooke \/ West Broadway)","latitude":45.457509,"longitude":-73.639485,"type":"low"},{"address":"C\u00c9GEP du Vieux-Montr\u00e9al (Ontario \/ de l'H\u00f4tel-de-Ville)","latitude":45.5140122,"longitude":-73.5659867,"type":"low"},{"address":"de l'H\u00f4tel-de-Ville \/ Roy","latitude":45.517401,"longitude":-73.574605,"type":"low"},{"address":"Plessis \/ Ontario","latitude":45.523492,"longitude":-73.56073,"type":"low"},{"address":"University \/ Prince-Arthur","latitude":45.507402,"longitude":-73.578444,"type":"low"},{"address":"Garnier \/ St-Joseph","latitude":45.532978,"longitude":-73.581222,"type":"low"},{"address":"St-Patrick \/ Briand","latitude":45.463397,"longitude":-73.596436,"type":"low"},{"address":"Drolet \/ Gounod","latitude":45.540951,"longitude":-73.626375,"type":"low"},{"address":"Sewell \/ Roy","latitude":45.5146774,"longitude":-73.5765982,"type":"low"},{"address":"Dollard \/ Van Horne","latitude":45.519153,"longitude":-73.616469,"type":"low"},{"address":"Marcil \/ Sherbrooke","latitude":45.471743,"longitude":-73.613924,"type":"low"},{"address":"Parc Eus\u00e8be-M\u00e9nard (Gouin \/ St-Vital)","latitude":45.5925395,"longitude":-73.6487482,"type":"low"},{"address":"Hogan \/ Ontario","latitude":45.535295,"longitude":-73.55116,"type":"low"},{"address":"Parc Pratt (Dunlop \/ Van Horne)","latitude":45.515007,"longitude":-73.619788,"type":"low"},{"address":"Messier \/ St-Joseph","latitude":45.5394606,"longitude":-73.5760564,"type":"low"},{"address":"du March\u00e9 Central \/ Cr\u00e9mazie","latitude":45.5334174,"longitude":-73.6488837,"type":"low"},{"address":"de l'H\u00f4tel-de-Ville \/ Rachel","latitude":45.5198966,"longitude":-73.5801065,"type":"low"},{"address":"Parc Villeray (Christophe-Colomb \/ Jarry)","latitude":45.5480925,"longitude":-73.624261,"type":"low"},{"address":"de Laprairie \/ Centre","latitude":45.4813667,"longitude":-73.5643189,"type":"low"},{"address":"William \/ St-Henri","latitude":45.498919,"longitude":-73.557254,"type":"low"},{"address":"St-Hubert \/ de Maisonneuve (nord)","latitude":45.5161321,"longitude":-73.5604969,"type":"low"},{"address":"de Gasp\u00e9 \/ Jarry","latitude":45.54078,"longitude":-73.630401,"type":"low"},{"address":"Shearer \/ Centre","latitude":45.483006,"longitude":-73.562187,"type":"low"},{"address":"de la C\u00f4te-Ste-Catherine \/ Decelles","latitude":45.500941,"longitude":-73.625637,"type":"low"},{"address":"Lanaudi\u00e8re \/ Jean-Talon","latitude":45.5454627,"longitude":-73.6107802,"type":"low"},{"address":"d'Orl\u00e9ans \/ Masson","latitude":45.557192,"longitude":-73.569847,"type":"low"},{"address":"de St-Firmin \/ Fleury","latitude":45.570657,"longitude":-73.651842,"type":"low"},{"address":"M\u00e9tro Joliette  (Hochelaga \/ Joliette)","latitude":45.5469919,"longitude":-73.5511534,"type":"low"},{"address":"St-Sylvestre \/ St-Charles S\/E","latitude":45.5363889,"longitude":-73.5124558,"type":"low"}]