[{"address":"M\u00e9tro Mont-Royal (Utilit\u00e9s publiques \/ Rivard)","latitude":45.5242361,"longitude":-73.5815522,"visit_count":4137,"type":"high"},{"address":"Clark \/ Laurier","latitude":45.5225445,"longitude":-73.5934693,"visit_count":3148,"type":"high"},{"address":"M\u00e9tro Papineau (Dorion \/ De Maisonneuve)","latitude":45.5238446,"longitude":-73.552366,"visit_count":3624,"type":"high"},{"address":"Marquette \/ Laurier","latitude":45.53543,"longitude":-73.5822,"visit_count":3186,"type":"high"},{"address":"M\u00e9tro Sherbrooke (de Rigaud \/ Berri)","latitude":45.518292,"longitude":-73.567971,"visit_count":3827,"type":"high"},{"address":"Milton \/ Durocher","latitude":45.508141,"longitude":-73.57493,"visit_count":3092,"type":"high"},{"address":"St-Dominique \/ Laurier","latitude":45.5236149,"longitude":-73.5924574,"visit_count":3821,"type":"high"},{"address":"Jeanne-Mance \/ Sherbrooke","latitude":45.5092868,"longitude":-73.5710192,"visit_count":3311,"type":"high"},{"address":"M\u00e9tro Vend\u00f4me (de Marlowe \/ de Maisonneuve)","latitude":45.473868,"longitude":-73.604538,"visit_count":3079,"type":"high"},{"address":"Laurier \/ St-Denis","latitude":45.5271484,"longitude":-73.5894795,"visit_count":3705,"type":"high"},{"address":"M\u00e9tro Beaubien (de Chateaubriand \/ Beaubien)","latitude":45.53536,"longitude":-73.603635,"visit_count":4581,"type":"high"},{"address":"Milton \/ University","latitude":45.5065198,"longitude":-73.576405,"visit_count":5671,"type":"high"},{"address":"Chomedey \/ de Maisonneuve","latitude":45.4918,"longitude":-73.584006,"visit_count":3332,"type":"high"},{"address":"Milton \/ du Parc","latitude":45.509361,"longitude":-73.573864,"visit_count":3484,"type":"high"},{"address":"Gilford \/ St-Denis","latitude":45.5251147,"longitude":-73.586006,"visit_count":3413,"type":"high"},{"address":"\u00c9mile-Duploy\u00e9 \/ Sherbrooke","latitude":45.527201,"longitude":-73.564729,"visit_count":3253,"type":"high"},{"address":"Clark \/ St-Viateur","latitude":45.5251603,"longitude":-73.5992467,"visit_count":3099,"type":"high"},{"address":"Peel \/ Ottawa","latitude":45.4941996,"longitude":-73.5599846,"visit_count":4123,"type":"high"},{"address":"du Parc-Lafontaine \/ Rachel","latitude":45.5254742,"longitude":-73.5743251,"visit_count":3183,"type":"high"},{"address":"M\u00e9tro Peel (de Maisonneuve \/ Stanley)","latitude":45.50038,"longitude":-73.57507,"visit_count":4729,"type":"high"},{"address":"Square St-Louis (du Square St-Louis \/ Laval)","latitude":45.516091,"longitude":-73.570129,"visit_count":4067,"type":"high"},{"address":"St-Andr\u00e9 \/ Ste-Catherine","latitude":45.516427,"longitude":-73.558112,"visit_count":4090,"type":"high"},{"address":"Guy \/ Sainte-Catherine","latitude":45.4949751,"longitude":-73.5777704,"visit_count":4466,"type":"high"},{"address":"Richmond \/ des Bassins","latitude":45.4875216,"longitude":-73.565003,"visit_count":3037,"type":"high"},{"address":"de la Commune \/ King","latitude":45.497515,"longitude":-73.552571,"visit_count":3682,"type":"high"},{"address":"de Lanaudi\u00e8re \/ du Mont-Royal","latitude":45.5302211,"longitude":-73.5769965,"visit_count":4243,"type":"high"},{"address":"Prince-Arthur \/ du Parc","latitude":45.51059,"longitude":-73.57547,"visit_count":4665,"type":"high"},{"address":"Laurier \/ de Br\u00e9beuf","latitude":45.532514,"longitude":-73.584811,"visit_count":4307,"type":"high"},{"address":"Clark \/ Rachel","latitude":45.517354,"longitude":-73.582129,"visit_count":4297,"type":"high"},{"address":"Jeanne-Mance \/ Laurier","latitude":45.5201249,"longitude":-73.5952138,"visit_count":3453,"type":"high"},{"address":"St-Dominique \/ St-Zotique","latitude":45.532265,"longitude":-73.611063,"visit_count":3234,"type":"high"},{"address":"de la Commune \/ Place Jacques-Cartier","latitude":45.50761,"longitude":-73.551836,"visit_count":4473,"type":"high"},{"address":"des Pins \/ St-Laurent","latitude":45.5152281,"longitude":-73.5750961,"visit_count":6586,"type":"high"},{"address":"Duluth  \/ St-Denis","latitude":45.5208024,"longitude":-73.5757989,"visit_count":3550,"type":"high"},{"address":"de la Commune \/ St-Sulpice","latitude":45.504242,"longitude":-73.55347,"visit_count":3997,"type":"high"},{"address":"Clark \/ Prince-Arthur","latitude":45.513303,"longitude":-73.572961,"visit_count":4504,"type":"high"},{"address":"Berri \/ Cherrier","latitude":45.519088,"longitude":-73.569509,"visit_count":4581,"type":"high"},{"address":"Mackay \/ de Maisonneuve","latitude":45.49683,"longitude":-73.57913,"visit_count":4935,"type":"high"},{"address":"Boyer \/ du Mont-Royal","latitude":45.527432,"longitude":-73.579917,"visit_count":5762,"type":"high"},{"address":"McTavish \/ Sherbrooke","latitude":45.502813,"longitude":-73.576024,"visit_count":5611,"type":"high"},{"address":"Aylmer \/ Prince-Arthur","latitude":45.508567,"longitude":-73.577698,"visit_count":3389,"type":"high"},{"address":"Duluth \/ de l'Esplanade","latitude":45.515092,"longitude":-73.581142,"visit_count":3744,"type":"high"},{"address":"Marquette \/ du Mont-Royal","latitude":45.53229,"longitude":-73.57544,"visit_count":6682,"type":"high"},{"address":"des Bassins \/ du S\u00e9minaire","latitude":45.490452,"longitude":-73.560172,"visit_count":3386,"type":"high"},{"address":"Alexandre-DeS\u00e8ve \/ Ste-Catherine","latitude":45.52123,"longitude":-73.553861,"visit_count":1339,"type":"average"},{"address":"de Mentana \/ Marie-Anne","latitude":45.526027,"longitude":-73.577859,"visit_count":1884,"type":"average"},{"address":"de Chambly \/ Rachel","latitude":45.549911,"longitude":-73.558263,"visit_count":1215,"type":"average"},{"address":"M\u00e9tro Charlevoix (Centre \/ Charlevoix)","latitude":45.478228,"longitude":-73.569651,"visit_count":2124,"type":"average"},{"address":"C\u00c9GEP du Vieux-Montr\u00e9al (Ontario \/ de l'H\u00f4tel-de-Ville)","latitude":45.5140122,"longitude":-73.5659867,"visit_count":1861,"type":"average"},{"address":"Milton \/ St-Laurent","latitude":45.5129039,"longitude":-73.5705918,"visit_count":1117,"type":"average"},{"address":"St-Gr\u00e9goire \/ Christophe-Colomb","latitude":45.5325974,"longitude":-73.5901111,"visit_count":1902,"type":"average"},{"address":"U. Concordia - Campus Loyola (Sherbrooke \/ West Broadway)","latitude":45.457509,"longitude":-73.639485,"visit_count":1156,"type":"average"},{"address":"Bennett \/ Ste-Catherine","latitude":45.553053,"longitude":-73.532427,"visit_count":1050,"type":"average"},{"address":"Chabot \/ Beaubien","latitude":45.544376,"longitude":-73.595645,"visit_count":1377,"type":"average"},{"address":"St-Ambroise \/ Louis-Cyr","latitude":45.4751933,"longitude":-73.5809433,"visit_count":1180,"type":"average"},{"address":"M\u00e9tro de l'\u00c9glise (Ross \/ de l'\u00c9glise)","latitude":45.462726,"longitude":-73.565959,"visit_count":1580,"type":"average"},{"address":"de l'H\u00f4tel-de-Ville \/ Roy","latitude":45.517401,"longitude":-73.574605,"visit_count":1945,"type":"average"},{"address":"de l'H\u00f4tel-de-Ville \/ Rachel","latitude":45.5198966,"longitude":-73.5801065,"visit_count":1670,"type":"average"},{"address":"William \/ Robert-Bourassa","latitude":45.497165,"longitude":-73.55933,"visit_count":1250,"type":"average"},{"address":"d'Orl\u00e9ans \/ Masson","latitude":45.557192,"longitude":-73.569847,"visit_count":1394,"type":"average"},{"address":"Jeanne-Mance \/ St-Viateur","latitude":45.523027,"longitude":-73.60184,"visit_count":2978,"type":"average"},{"address":"St-Hubert \/ de Maisonneuve (nord)","latitude":45.5161321,"longitude":-73.5604969,"visit_count":1338,"type":"average"},{"address":"William \/ St-Henri","latitude":45.498919,"longitude":-73.557254,"visit_count":1523,"type":"average"},{"address":"March\u00e9 Atwater","latitude":45.480208,"longitude":-73.577599,"visit_count":2835,"type":"average"},{"address":"Plessis \/ Ontario","latitude":45.523492,"longitude":-73.56073,"visit_count":1760,"type":"average"},{"address":"Rachel \/ de Br\u00e9beuf","latitude":45.52689,"longitude":-73.57264,"visit_count":2589,"type":"average"},{"address":"Peel \/ Notre-Dame","latitude":45.4954469,"longitude":-73.5632944,"visit_count":2997,"type":"average"},{"address":"Parc Baldwin (Fullum \/ Sherbrooke)","latitude":45.5340705,"longitude":-73.5626507,"visit_count":2162,"type":"average"},{"address":"5e avenue \/ Masson","latitude":45.5475583,"longitude":-73.5754719,"visit_count":2412,"type":"average"},{"address":"Parc Lalancette (de Rouen \/ Valois)","latitude":45.548145,"longitude":-73.5471261,"visit_count":1351,"type":"average"},{"address":"Marcil \/ Sherbrooke","latitude":45.471743,"longitude":-73.613924,"visit_count":1184,"type":"average"},{"address":"de L\u00e9ry \/ Sherbrooke","latitude":45.5409997,"longitude":-73.5582626,"visit_count":1040,"type":"average"},{"address":"Beaudry \/ Sherbrooke","latitude":45.523035,"longitude":-73.565395,"visit_count":1834,"type":"average"},{"address":"Parc du P\u00e9lican (1\u00e8re avenue \/ Masson)","latitude":45.5451997,"longitude":-73.5764507,"visit_count":2757,"type":"average"},{"address":"Cypress \/ Peel","latitude":45.499325,"longitude":-73.571768,"visit_count":1138,"type":"average"},{"address":"Boyer \/ St-Zotique","latitude":45.53848,"longitude":-73.60556,"visit_count":2487,"type":"average"},{"address":"St-Hubert \/ Laurier","latitude":45.52931,"longitude":-73.588657,"visit_count":1841,"type":"average"},{"address":"Sanguinet \/ de Maisonneuve","latitude":45.513405,"longitude":-73.562594,"visit_count":1349,"type":"average"},{"address":"Drolet \/ St-Zotique","latitude":45.534882,"longitude":-73.609412,"visit_count":1302,"type":"average"},{"address":"Logan \/ Fullum","latitude":45.528366,"longitude":-73.551171,"visit_count":1019,"type":"average"},{"address":"de Maisonneuve \/ Mansfield (sud)","latitude":45.502145,"longitude":-73.573427,"visit_count":2118,"type":"average"},{"address":"15e avenue \/ Masson","latitude":45.553898,"longitude":-73.571387,"visit_count":1449,"type":"average"},{"address":"M\u00e9tro Frontenac (Ontario \/ du Havre)","latitude":45.533706,"longitude":-73.552179,"visit_count":2363,"type":"average"},{"address":"Fullum \/ Marie-Anne","latitude":45.5365054,"longitude":-73.5680392,"visit_count":2186,"type":"average"},{"address":"St-Alexandre \/ Ste-Catherine","latitude":45.505359,"longitude":-73.567741,"visit_count":1968,"type":"average"},{"address":"M\u00e9tro Lionel-Groulx (St-Jacques \/ Atwater)","latitude":45.4836285,"longitude":-73.5797026,"visit_count":2288,"type":"average"},{"address":"Mont-Royal \/ St-Denis","latitude":45.5238768,"longitude":-73.5830489,"visit_count":1182,"type":"average"},{"address":"M\u00e9tro Villa-Maria (de Monkland \/ D\u00e9carie)","latitude":45.4789684,"longitude":-73.6195993,"visit_count":1061,"type":"average"},{"address":"Gauthier \/ de Lorimier","latitude":45.531674,"longitude":-73.565413,"visit_count":2244,"type":"average"},{"address":"Omer-Lavall\u00e9e \/ du Midway","latitude":45.545776,"longitude":-73.562175,"visit_count":1403,"type":"average"},{"address":"Villeneuve \/ du Parc","latitude":45.51829,"longitude":-73.59235,"visit_count":2045,"type":"average"},{"address":"M\u00e9tro Parc  (Hutchison \/ Ogilvy)","latitude":45.5303513,"longitude":-73.6243924,"visit_count":2269,"type":"average"},{"address":"St-Urbain \/ Beaubien","latitude":45.52951,"longitude":-73.61068,"visit_count":1289,"type":"average"},{"address":"Parc Ludger-Duvernay (St-Andr\u00e9 \/ St-Hubert)","latitude":45.5314746,"longitude":-73.5924205,"visit_count":1117,"type":"average"},{"address":"St-Urbain \/ de la Gaucheti\u00e8re","latitude":45.507078,"longitude":-73.561395,"visit_count":1320,"type":"average"},{"address":"de Bellechasse \/ de St-Vallier","latitude":45.53341,"longitude":-73.601124,"visit_count":1904,"type":"average"},{"address":"Messier \/ St-Joseph","latitude":45.5394606,"longitude":-73.5760564,"visit_count":1326,"type":"average"},{"address":"St-Charles \/ Thomas-Keefer","latitude":45.477605,"longitude":-73.573775,"visit_count":2588,"type":"average"},{"address":"Dollard \/ Van Horne","latitude":45.519153,"longitude":-73.616469,"visit_count":1346,"type":"average"},{"address":"Masson \/ Molson","latitude":45.5443459,"longitude":-73.5769769,"visit_count":1347,"type":"average"},{"address":"St-Laurent \/ Pl. du March\u00e9","latitude":45.5092896,"longitude":-73.562416,"visit_count":2192,"type":"average"},{"address":"BAnQ (Berri)","latitude":45.5160139,"longitude":-73.5629196,"visit_count":1973,"type":"average"},{"address":"M\u00e9tro Verdun (Willibrord \/ de Verdun)","latitude":45.459488,"longitude":-73.572092,"visit_count":1864,"type":"average"},{"address":"Montcalm \/ de Maisonneuve","latitude":45.519139,"longitude":-73.557866,"visit_count":2215,"type":"average"},{"address":"Place Valois (Valois \/ Ontario)","latitude":45.5471414,"longitude":-73.5433951,"visit_count":1265,"type":"average"},{"address":"St-Jacques \/ St-Laurent","latitude":45.506421,"longitude":-73.556466,"visit_count":1082,"type":"average"},{"address":"Aylmer \/ Ste-Catherine","latitude":45.5043468,"longitude":-73.5689485,"visit_count":1282,"type":"average"},{"address":"St-Nicolas \/ Place d'Youville","latitude":45.501967,"longitude":-73.555153,"visit_count":1458,"type":"average"},{"address":"Notre-Dame \/ de la Montagne","latitude":45.493029,"longitude":-73.564818,"visit_count":1631,"type":"average"},{"address":"Guizot \/ St-Laurent","latitude":45.539663,"longitude":-73.634475,"visit_count":1013,"type":"average"},{"address":"de la Roche \/  de Bellechasse","latitude":45.537159,"longitude":-73.597476,"visit_count":1470,"type":"average"},{"address":"M\u00e9tro Mont-Royal (Pontiac \/ du Mont-Royal)","latitude":45.5239839,"longitude":-73.5830784,"visit_count":1374,"type":"average"},{"address":"St-Hubert \/ Duluth","latitude":45.522426,"longitude":-73.574184,"visit_count":2831,"type":"average"},{"address":"de la Roche \/ B\u00e9langer","latitude":45.54167,"longitude":-73.607604,"visit_count":1685,"type":"average"},{"address":"Pierre-de-Coubertin \/ Aird","latitude":45.5590311,"longitude":-73.5483035,"visit_count":1300,"type":"average"},{"address":"Drummond \/ Ste-Catherine","latitude":45.498639,"longitude":-73.574227,"visit_count":1085,"type":"average"},{"address":"1\u00e8re avenue \/ Rosemont","latitude":45.5478,"longitude":-73.584867,"visit_count":1314,"type":"average"},{"address":"Casgrain \/ Maguire","latitude":45.525933,"longitude":-73.595253,"visit_count":1358,"type":"average"},{"address":"M\u00e9tro \u00c9douard-Montpetit (du Mont-Royal \/ Vincent-d'Indy)","latitude":45.510086,"longitude":-73.611429,"visit_count":1597,"type":"average"},{"address":"de Gasp\u00e9 \/ Villeray","latitude":45.5388872,"longitude":-73.623907,"visit_count":1150,"type":"average"},{"address":"de Lanaudi\u00e8re \/ B\u00e9langer","latitude":45.543651,"longitude":-73.60565,"visit_count":1537,"type":"average"},{"address":"19e avenue \/ St-Zotique","latitude":45.561594,"longitude":-73.585643,"visit_count":1034,"type":"average"},{"address":"Boucher \/ St-Denis","latitude":45.5278492,"longitude":-73.5918613,"visit_count":1935,"type":"average"},{"address":"Durocher \/ Beaumont","latitude":45.5280002,"longitude":-73.6192358,"visit_count":1169,"type":"average"},{"address":"Querbes \/ Laurier","latitude":45.51754,"longitude":-73.597832,"visit_count":1317,"type":"average"},{"address":"St-Denis \/ Ste-Catherine","latitude":45.5137229,"longitude":-73.5603105,"visit_count":2394,"type":"average"},{"address":"Calixa-Lavall\u00e9e \/ Sherbrooke","latitude":45.52479,"longitude":-73.56545,"visit_count":2423,"type":"average"},{"address":"Chabot \/ de Bellechasse","latitude":45.54257,"longitude":-73.592144,"visit_count":1471,"type":"average"},{"address":"Desjardins \/ Ontario","latitude":45.551192,"longitude":-73.540873,"visit_count":1262,"type":"average"},{"address":"Sewell \/ Roy","latitude":45.5146774,"longitude":-73.5765982,"visit_count":1043,"type":"average"},{"address":"Garnier \/ St-Joseph","latitude":45.532978,"longitude":-73.581222,"visit_count":1387,"type":"average"},{"address":"M\u00e9tro Bonaventure (de la Gaucheti\u00e8re \/ de la Cath\u00e9drale)","latitude":45.4983122,"longitude":-73.567256,"visit_count":1399,"type":"average"},{"address":"University \/ Prince-Arthur","latitude":45.507402,"longitude":-73.578444,"visit_count":2294,"type":"average"},{"address":"du President-Kennedy \/ Union","latitude":45.505011,"longitude":-73.572028,"visit_count":1635,"type":"average"},{"address":"M\u00e9tro C\u00f4te-des-Neiges (Jean-Brillant \/ de la C\u00f4te-des-Neiges)","latitude":45.496098,"longitude":-73.621733,"visit_count":2157,"type":"average"},{"address":"University \/ des Pins","latitude":45.508203,"longitude":-73.580112,"visit_count":1143,"type":"average"},{"address":"M\u00e9tro Jarry (Lajeunesse \/ Jarry)","latitude":45.5435597,"longitude":-73.627772,"visit_count":2909,"type":"average"},{"address":"Marmier \/ St-Denis","latitude":45.530871,"longitude":-73.598345,"visit_count":2919,"type":"average"},{"address":"Lajeunesse \/ Villeray","latitude":45.542119,"longitude":-73.622547,"visit_count":1887,"type":"average"},{"address":"Richardson \/ Montmorency","latitude":45.4849661,"longitude":-73.5603225,"visit_count":1601,"type":"average"},{"address":"Jeanne-Mance \/ Fairmount","latitude":45.5209837,"longitude":-73.5972807,"visit_count":1492,"type":"average"},{"address":"Ste-Catherine \/ Union","latitude":45.5036663,"longitude":-73.5695761,"visit_count":2981,"type":"average"},{"address":"Canning \/ Notre-Dame","latitude":45.486319,"longitude":-73.570233,"visit_count":1058,"type":"average"},{"address":"M\u00e9tro Universit\u00e9 de Montr\u00e9al (\u00c9douard-Montpetit \/ Louis-Collin)","latitude":45.50367,"longitude":-73.61848,"visit_count":2311,"type":"average"},{"address":"M\u00e9tro Place Saint-Henri (St-Ferdinand \/ St-Jacques)","latitude":45.4772809,"longitude":-73.5873042,"visit_count":1235,"type":"average"},{"address":"Henri-Julien \/ de Castelnau","latitude":45.537891,"longitude":-73.618215,"visit_count":1397,"type":"average"},{"address":"Jeanne-Mance \/ Beaubien","latitude":45.52765,"longitude":-73.6123,"visit_count":1175,"type":"average"},{"address":"CHSLD Robert Cliche (de Bellechasse \/ 16e avenue)","latitude":45.557568,"longitude":-73.579191,"visit_count":1019,"type":"average"},{"address":"Gare d'autocars de Montr\u00e9al (Berri \/ Ontario)","latitude":45.516897,"longitude":-73.563949,"visit_count":2470,"type":"average"},{"address":"Parc Maisonneuve (Viau \/ Sherbrooke)","latitude":45.5649368,"longitude":-73.5555911,"visit_count":1532,"type":"average"},{"address":"St-Denis \/ de Maisonneuve","latitude":45.514404,"longitude":-73.561919,"visit_count":1381,"type":"average"},{"address":"Ottawa \/ William","latitude":45.489727,"longitude":-73.564063,"visit_count":1585,"type":"average"},{"address":"Cartier \/ Dandurand","latitude":45.539236,"longitude":-73.585946,"visit_count":1304,"type":"average"},{"address":"de Maisonneuve \/ Mansfield (nord)","latitude":45.502311,"longitude":-73.5733635,"visit_count":1285,"type":"average"},{"address":"Mackay \/ Ste-Catherine","latitude":45.495709,"longitude":-73.576952,"visit_count":2579,"type":"average"},{"address":"de Lanaudi\u00e8re \/ Laurier","latitude":45.533314,"longitude":-73.583737,"visit_count":2546,"type":"average"},{"address":"Messier \/ du Mont-Royal","latitude":45.537114,"longitude":-73.571003,"visit_count":2857,"type":"average"},{"address":"de l'H\u00f4tel-de-Ville \/ Ste-Catherine","latitude":45.51166,"longitude":-73.562136,"visit_count":1692,"type":"average"},{"address":"Place du Canada (Peel \/ des Canadiens-de-Montr\u00e9al)","latitude":45.4978835,"longitude":-73.5685676,"visit_count":2107,"type":"average"},{"address":"Gary-Carter \/ St-Laurent","latitude":45.5359,"longitude":-73.622443,"visit_count":2478,"type":"average"},{"address":"Fortune \/ Wellington","latitude":45.477923,"longitude":-73.559038,"visit_count":1080,"type":"average"},{"address":"10e avenue \/ Masson","latitude":45.550306,"longitude":-73.573353,"visit_count":2901,"type":"average"},{"address":"Montcalm \/ Ontario","latitude":45.521081,"longitude":-73.562275,"visit_count":2242,"type":"average"},{"address":"Maguire \/ St-Laurent","latitude":45.524628,"longitude":-73.595811,"visit_count":2194,"type":"average"},{"address":"Ste-Catherine \/ Towers","latitude":45.4922807,"longitude":-73.5809648,"visit_count":2958,"type":"average"},{"address":"Lincoln \/ du Fort","latitude":45.493034,"longitude":-73.583836,"visit_count":1034,"type":"average"},{"address":"Hutchison \/ Van Horne","latitude":45.524942,"longitude":-73.610606,"visit_count":1125,"type":"average"},{"address":"Letourneux \/ Ste-Catherine","latitude":45.5507836,"longitude":-73.5341,"visit_count":1082,"type":"average"},{"address":"Aylmer \/ Sherbrooke","latitude":45.506587,"longitude":-73.573299,"visit_count":2085,"type":"average"},{"address":"M\u00e9tro Place-des-Arts (du Pr\u00e9sident-Kennedy \/ Jeanne-Mance)","latitude":45.5082046,"longitude":-73.5688144,"visit_count":2736,"type":"average"},{"address":"de Gasp\u00e9 \/ Beaubien","latitude":45.5319579,"longitude":-73.607001,"visit_count":2101,"type":"average"},{"address":"M\u00e9tro Snowdon (de Westbury \/ Queen-Mary)","latitude":45.485385,"longitude":-73.628142,"visit_count":1115,"type":"average"},{"address":"Jeanne-Mance \/ Ren\u00e9-L\u00e9vesque","latitude":45.506371,"longitude":-73.564201,"visit_count":1949,"type":"average"},{"address":"Molson \/ Beaubien","latitude":45.549686,"longitude":-73.591155,"visit_count":1327,"type":"average"},{"address":"March\u00e9 Jean-Talon (Henri-Julien \/ Jean-Talon)","latitude":45.536785,"longitude":-73.614888,"visit_count":2101,"type":"average"},{"address":"St-Mathieu \/ Sherbrooke","latitude":45.495789,"longitude":-73.582596,"visit_count":2107,"type":"average"},{"address":"McGill \/ Wellington","latitude":45.4994477,"longitude":-73.5548991,"visit_count":1059,"type":"average"},{"address":"St-Cyril \/ Wiseman","latitude":45.5208548,"longitude":-73.6157396,"visit_count":1285,"type":"average"},{"address":"Boyer \/ Everett","latitude":45.5432845,"longitude":-73.6162861,"visit_count":1261,"type":"average"},{"address":"M\u00e9tro Cr\u00e9mazie (Cr\u00e9mazie \/ Lajeunesse)","latitude":45.546408,"longitude":-73.638428,"visit_count":1344,"type":"average"},{"address":"Victoria \/ de Maisonneuve","latitude":45.477429,"longitude":-73.600169,"visit_count":1361,"type":"average"},{"address":"St-Andr\u00e9 \/ Rachel","latitude":45.5243532,"longitude":-73.5759665,"visit_count":1597,"type":"average"},{"address":"Drolet \/ Beaubien","latitude":45.533348,"longitude":-73.605834,"visit_count":1837,"type":"average"},{"address":"Mozart \/ St-Laurent","latitude":45.53318,"longitude":-73.61544,"visit_count":1134,"type":"average"},{"address":"de Kent \/ de la C\u00f4te-des-Neiges","latitude":45.501449,"longitude":-73.633051,"visit_count":1635,"type":"average"},{"address":"Valois \/ Ste-Catherine","latitude":45.54523,"longitude":-73.53725,"visit_count":1250,"type":"average"},{"address":"St-Dominique \/ du Mont-Royal","latitude":45.5205595,"longitude":-73.5858203,"visit_count":2536,"type":"average"},{"address":"Henri-Julien \/ Laurier","latitude":45.525843,"longitude":-73.590399,"visit_count":2112,"type":"average"},{"address":"St-Antoine \/ de la Montagne","latitude":45.4953717,"longitude":-73.5685891,"visit_count":1534,"type":"average"},{"address":"de Maisonneuve \/ Greene","latitude":45.486971,"longitude":-73.589293,"visit_count":1548,"type":"average"},{"address":"Marie-Anne \/ St-Hubert","latitude":45.524683,"longitude":-73.578897,"visit_count":1933,"type":"average"},{"address":"Ste-Catherine \/ St-Laurent","latitude":45.5098134,"longitude":-73.5638952,"visit_count":1655,"type":"average"},{"address":"St-Dominique \/ Bernard","latitude":45.527933,"longitude":-73.601223,"visit_count":1245,"type":"average"},{"address":"Maguire \/ Henri-Julien","latitude":45.527041,"longitude":-73.593471,"visit_count":1243,"type":"average"},{"address":"Pontiac \/ Gilford","latitude":45.527009,"longitude":-73.585766,"visit_count":2430,"type":"average"},{"address":"Square Viger (Berri \/ Viger)","latitude":45.5122121,"longitude":-73.5546289,"visit_count":2333,"type":"average"},{"address":"Crescent \/ de Maisonneuve","latitude":45.498112,"longitude":-73.577615,"visit_count":2586,"type":"average"},{"address":"Parc Jeanne-Mance (monument sir George-\u00c9tienne-Cartier)","latitude":45.5148749,"longitude":-73.5848641,"visit_count":1537,"type":"average"},{"address":"de Bleury \/ de Maisonneuve","latitude":45.5070965,"longitude":-73.5684416,"visit_count":2375,"type":"average"},{"address":"de Monkland \/ Girouard","latitude":45.477107,"longitude":-73.621438,"visit_count":1064,"type":"average"},{"address":"Poupart \/ Ontario","latitude":45.531939,"longitude":-73.553439,"visit_count":1061,"type":"average"},{"address":"Ste-Catherine \/ Dezery","latitude":45.539385,"longitude":-73.541,"visit_count":1485,"type":"average"},{"address":"Villeneuve \/ St-Laurent","latitude":45.521342,"longitude":-73.589419,"visit_count":2475,"type":"average"},{"address":"Faillon \/ St-Denis","latitude":45.5398641,"longitude":-73.6203128,"visit_count":1286,"type":"average"},{"address":"Prince-Arthur \/ St-Urbain","latitude":45.512587,"longitude":-73.573739,"visit_count":2422,"type":"average"},{"address":"M\u00e9tro Rosemont (de St-Vallier \/ Rosemont)","latitude":45.531783,"longitude":-73.597793,"visit_count":2273,"type":"average"},{"address":"Melville \/ de Maisonneuve","latitude":45.4818402,"longitude":-73.595379,"visit_count":1506,"type":"average"},{"address":"St-Dominique \/ de Bellechasse","latitude":45.5295036,"longitude":-73.6048646,"visit_count":2332,"type":"average"},{"address":"Boyer \/ Jean-Talon","latitude":45.541586,"longitude":-73.612481,"visit_count":1007,"type":"average"},{"address":"de Bullion \/ du Mont-Royal","latitude":45.521751,"longitude":-73.585268,"visit_count":2197,"type":"average"},{"address":"Hutchison \/ Prince-Arthur","latitude":45.509759,"longitude":-73.576107,"visit_count":2451,"type":"average"},{"address":"Laval \/ Duluth","latitude":45.519216,"longitude":-73.57718,"visit_count":2851,"type":"average"},{"address":"St-Zotique \/ Clark","latitude":45.531401,"longitude":-73.612674,"visit_count":1148,"type":"average"},{"address":"de Bellechasse \/ de Lanaudi\u00e8re","latitude":45.5393536,"longitude":-73.5953736,"visit_count":1573,"type":"average"},{"address":"M\u00e9tro St-Michel (Shaughnessy \/ St-Michel)","latitude":45.559199,"longitude":-73.599658,"visit_count":1079,"type":"average"},{"address":"St-Andr\u00e9 \/ Ontario","latitude":45.51889,"longitude":-73.56353,"visit_count":1591,"type":"average"},{"address":"Laval \/ du Mont-Royal","latitude":45.522365,"longitude":-73.584146,"visit_count":2772,"type":"average"},{"address":"St-Urbain \/ Ren\u00e9-L\u00e9vesque","latitude":45.507838,"longitude":-73.563136,"visit_count":1589,"type":"average"},{"address":"Ren\u00e9-L\u00e9vesque \/ Papineau","latitude":45.5209208,"longitude":-73.5499048,"visit_count":1360,"type":"average"},{"address":"Beaubien \/ 8e avenue","latitude":45.553457,"longitude":-73.587842,"visit_count":1167,"type":"average"},{"address":"St-Antoine \/ Jean-Paul Riopelle","latitude":45.5029397,"longitude":-73.5606404,"visit_count":1475,"type":"average"},{"address":"\u00c9douard-Montpetit \/ de Stirling","latitude":45.50723,"longitude":-73.615085,"visit_count":2185,"type":"average"},{"address":"Regina \/ de Verdun","latitude":45.467369,"longitude":-73.570769,"visit_count":1020,"type":"average"},{"address":"Parc P\u00e8re-Marquette (Chambord \/ Rosemont)","latitude":45.537088,"longitude":-73.593219,"visit_count":2348,"type":"average"},{"address":"16e avenue \/ St-Joseph","latitude":45.55287,"longitude":-73.565631,"visit_count":1159,"type":"average"},{"address":"Casgrain \/ St-Viateur","latitude":45.527513,"longitude":-73.598791,"visit_count":1045,"type":"average"},{"address":"M\u00e9tro Pie-IX (Pierre-de-Coubertin \/ Desjardins)","latitude":45.5543734,"longitude":-73.5513747,"visit_count":2458,"type":"average"},{"address":"Queen \/ Wellington","latitude":45.497605,"longitude":-73.55535,"visit_count":1175,"type":"average"},{"address":"Waverly \/ St-Viateur","latitude":45.523856,"longitude":-73.600127,"visit_count":2398,"type":"average"},{"address":"Cartier \/ Marie-Anne","latitude":45.532674,"longitude":-73.571776,"visit_count":2565,"type":"average"},{"address":"M\u00e9tro Sauv\u00e9 (Berri \/ Sauv\u00e9)","latitude":45.550692,"longitude":-73.656367,"visit_count":1442,"type":"average"},{"address":"Ste-Catherine \/ St-Cl\u00e9ment","latitude":45.5567173,"longitude":-73.5302496,"visit_count":1030,"type":"average"},{"address":"Atateken \/ du Square Amherst","latitude":45.5206338,"longitude":-73.563906,"visit_count":2775,"type":"average"},{"address":"Ste-Catherine \/ Sanguinet","latitude":45.5128938,"longitude":-73.5612479,"visit_count":1714,"type":"average"},{"address":"Drummond \/ Sherbrooke","latitude":45.5003924,"longitude":-73.578168,"visit_count":1313,"type":"average"},{"address":"Parc du P\u00e9lican (2e avenue \/ St-Joseph)","latitude":45.544513,"longitude":-73.571564,"visit_count":1047,"type":"average"},{"address":"de Castelnau \/ Lajeunesse","latitude":45.5403962,"longitude":-73.6168179,"visit_count":1279,"type":"average"},{"address":"de Maisonneuve \/ Mansfield (sud-est)","latitude":45.5022935,"longitude":-73.5733064,"visit_count":1521,"type":"average"},{"address":"Place des Festivals ( du Pr\u00e9sident-Kennedy \/ de Bleury)","latitude":45.5076439,"longitude":-73.569324,"visit_count":2210,"type":"average"},{"address":"La Tour de Montr\u00e9al (Pierre-de-Coubertin \/ Bennett)","latitude":45.5597053,"longitude":-73.5515544,"visit_count":1713,"type":"average"},{"address":"Aylwin \/ Ontario","latitude":45.544284,"longitude":-73.54534,"visit_count":2961,"type":"average"},{"address":"Gilford \/ des \u00c9rables","latitude":45.5375266,"longitude":-73.5751244,"visit_count":1266,"type":"average"},{"address":"Andr\u00e9-Laurendeau \/ Rachel","latitude":45.5428981,"longitude":-73.561846,"visit_count":2413,"type":"average"},{"address":"Laurier \/ de Bordeaux","latitude":45.537205,"longitude":-73.579254,"visit_count":2044,"type":"average"},{"address":"Parc Chamberland (Dorais \/ de l'\u00c9glise)","latitude":45.502989,"longitude":-73.689113,"visit_count":154,"type":"low"},{"address":"Bloomfield \/ Ball","latitude":45.5299594,"longitude":-73.632946,"visit_count":969,"type":"low"},{"address":"Brittany \/ Ainsley","latitude":45.5258899,"longitude":-73.6500344,"visit_count":402,"type":"low"},{"address":"Parc Beaulac (rue \u00c9lizabeth)","latitude":45.5200557,"longitude":-73.6779515,"visit_count":88,"type":"low"},{"address":"de Grenoble \/ de Cassis","latitude":45.5788972,"longitude":-73.7049271,"visit_count":56,"type":"low"},{"address":"Lamarre \/ Lavall\u00e9e","latitude":45.5337477,"longitude":-73.4859958,"visit_count":86,"type":"low"},{"address":"Natatorium (LaSalle \/ Rolland)","latitude":45.444547,"longitude":-73.575091,"visit_count":748,"type":"low"},{"address":"Parc du Bois-Franc (de l'\u00c9quateur \/ des Andes)","latitude":45.5131776,"longitude":-73.7130609,"visit_count":178,"type":"low"},{"address":"University \/ Milton","latitude":45.506511,"longitude":-73.576669,"visit_count":256,"type":"low"},{"address":"Palm \/ St-R\u00e9mi","latitude":45.470366,"longitude":-73.589816,"visit_count":157,"type":"low"},{"address":"M\u00e9tro Champ-de-Mars (Viger \/ Sanguinet)","latitude":45.510351,"longitude":-73.556508,"visit_count":365,"type":"low"},{"address":"du Canal \/ McLaughlin","latitude":45.4297026,"longitude":-73.6694868,"visit_count":737,"type":"low"},{"address":"De Calli\u00e8res \/ d'Auvergne","latitude":45.593422,"longitude":-73.6690217,"visit_count":71,"type":"low"},{"address":"Industriel \/ Louis-J.-Lafortune","latitude":45.5819096,"longitude":-73.4552991,"visit_count":12,"type":"low"},{"address":"Parc MacDonald (Clanranald \/ Isabella)","latitude":45.4826927,"longitude":-73.6348128,"visit_count":415,"type":"low"},{"address":"du Tricentenaire \/ Prince-Albert","latitude":45.649546,"longitude":-73.491916,"visit_count":62,"type":"low"},{"address":"Duchesneau \/ de Marseille","latitude":45.6096263,"longitude":-73.522739,"visit_count":199,"type":"low"},{"address":"Parc Laurier (Laurier \/ Dubuc)","latitude":45.5336105,"longitude":-73.4737462,"visit_count":84,"type":"low"},{"address":"de Mortagne \/ Jean-Neveu","latitude":45.5692375,"longitude":-73.449499,"visit_count":24,"type":"low"},{"address":"de l'Hotel-de-Ville \/ Ontario","latitude":45.5137452,"longitude":-73.5666633,"visit_count":938,"type":"low"},{"address":"Pierre-P\u00e9ladeau \/ du Centropolis","latitude":45.5625118,"longitude":-73.7437065,"visit_count":108,"type":"low"},{"address":"des Ormeaux \/ de Grosbois","latitude":45.6059017,"longitude":-73.5343695,"visit_count":234,"type":"low"},{"address":"Bassin olympique (Chemin du Chenal le Moyne)","latitude":45.5169025,"longitude":-73.5272455,"visit_count":348,"type":"low"},{"address":"Parc Ernest-Rouleau (Gouin)","latitude":45.6313127,"longitude":-73.616315,"visit_count":118,"type":"low"},{"address":"Parc Ottawa (de Belleville \/ Fleury)","latitude":45.58116,"longitude":-73.6412434,"visit_count":132,"type":"low"},{"address":"Plymouth \/ Chem.Eden","latitude":45.5064888,"longitude":-73.6604789,"visit_count":194,"type":"low"},{"address":"Robert-Bourassa \/ Ren\u00e9-L\u00e9vesque","latitude":45.5021829,"longitude":-73.5682538,"visit_count":932,"type":"low"},{"address":"du Parc \/ Fran\u00e7ois-Foucault","latitude":45.6057854,"longitude":-73.66274,"visit_count":66,"type":"low"},{"address":"Bloomfield \/ Jean-Talon","latitude":45.5274603,"longitude":-73.6241752,"visit_count":161,"type":"low"},{"address":"Parc Champdor\u00e9 (Champdor\u00e9 \/ de Lille)","latitude":45.5691762,"longitude":-73.6362934,"visit_count":407,"type":"low"},{"address":"Cartier \/ Gillford","latitude":45.535288,"longitude":-73.5773814,"visit_count":354,"type":"low"},{"address":"St-Jacques \/ Vinet","latitude":45.485329,"longitude":-73.5769227,"visit_count":513,"type":"low"},{"address":"Biblioth\u00e8que du Bois\u00e9 (Thimens \/ Todd)","latitude":45.504635,"longitude":-73.704432,"visit_count":13,"type":"low"},{"address":"Parc St-Henri (Laporte \/ Guay)","latitude":45.4801338,"longitude":-73.5859081,"visit_count":517,"type":"low"},{"address":"Maisonneuve \/ Wood","latitude":45.4881979,"longitude":-73.5880705,"visit_count":403,"type":"low"},{"address":"Chabanel \/ du Parc","latitude":45.538308,"longitude":-73.654884,"visit_count":806,"type":"low"},{"address":"Parc LaSalle (10e avenue \/ Victoria)","latitude":45.4380555,"longitude":-73.6727393,"visit_count":118,"type":"low"},{"address":"Parc St-Claude (8e rue \/ 7e avenue)","latitude":45.5622343,"longitude":-73.6916762,"visit_count":34,"type":"low"},{"address":"du Havre \/ de Rouen","latitude":45.534563,"longitude":-73.554787,"visit_count":825,"type":"low"},{"address":"de Melrose \/ Sherbrooke","latitude":45.46982,"longitude":-73.616961,"visit_count":730,"type":"low"},{"address":"Mozart \/ Fran\u00e7ois-Foucault","latitude":45.604288,"longitude":-73.6649179,"visit_count":13,"type":"low"},{"address":"Notre-Dame \/ St-Gabriel","latitude":45.507144,"longitude":-73.555119,"visit_count":845,"type":"low"},{"address":"Jardin Botanique d\u00e9p\u00f4t fiert\u00e9 (Sherbrooke \/ Pie-IX)","latitude":45.5567924,"longitude":-73.554647,"visit_count":2,"type":"low"},{"address":"Dixie \/ 54e avenue","latitude":45.4433803,"longitude":-73.7178916,"visit_count":78,"type":"low"},{"address":"Parc St-Laurent (Salk \/ Thomas-Chapais)","latitude":45.6062348,"longitude":-73.6287838,"visit_count":53,"type":"low"},{"address":"St-Timoth\u00e9 \/ Robin","latitude":45.5186318,"longitude":-73.5611299,"visit_count":3,"type":"low"},{"address":"de Gasp\u00e9 \/ de Li\u00e8ge","latitude":45.542485,"longitude":-73.636342,"visit_count":866,"type":"low"},{"address":"Parc Ivan-Franko (33e avenue \/ Victoria)","latitude":45.43746,"longitude":-73.6935318,"visit_count":6,"type":"low"},{"address":"Langelier \/ Marie-Victorin","latitude":45.6145192,"longitude":-73.6122447,"visit_count":95,"type":"low"},{"address":"McNamara \/ St-Martin O","latitude":45.5712036,"longitude":-73.7235188,"visit_count":70,"type":"low"},{"address":"Tolhurst \/ Fleury","latitude":45.544149,"longitude":-73.66752,"visit_count":557,"type":"low"},{"address":"M\u00e9tro de la Concorde (L\u00e9o-Lacombe)","latitude":45.5604899,"longitude":-73.7091851,"visit_count":143,"type":"low"},{"address":"Parc Lacharit\u00e9 (Latour \/ Forget)","latitude":45.4177375,"longitude":-73.6233855,"visit_count":150,"type":"low"},{"address":"Parc Luigi-Pirandello (de Bretagne \/ Jean-Rivard)","latitude":45.5794057,"longitude":-73.6025888,"visit_count":195,"type":"low"},{"address":"St-Charles \/ Montarville","latitude":45.533682,"longitude":-73.515261,"visit_count":96,"type":"low"},{"address":"Parc Wilfrid-Bastien (Lacordaire \/ des Galets)","latitude":45.5864002,"longitude":-73.5952181,"visit_count":136,"type":"low"},{"address":"Laird \/ Glencoe","latitude":45.5061916,"longitude":-73.642308,"visit_count":317,"type":"low"},{"address":"Gloria \/ Dollard","latitude":45.429711,"longitude":-73.6338834,"visit_count":221,"type":"low"},{"address":"Biblioth\u00e8que d'Ahuntsic (Lajeunesse \/ Fleury)","latitude":45.5534001,"longitude":-73.6622545,"visit_count":592,"type":"low"},{"address":"Pratt \/ Bates","latitude":45.5169478,"longitude":-73.6263156,"visit_count":695,"type":"low"},{"address":"Victoria \/ 18e avenue Lachine","latitude":45.435996,"longitude":-73.680111,"visit_count":145,"type":"low"},{"address":"5e avenue \/ Rosemont","latitude":45.5499,"longitude":-73.583084,"visit_count":755,"type":"low"},{"address":"M\u00e9tro Longueuil - Universit\u00e9 de Sherbrooke","latitude":45.523319,"longitude":-73.520127,"visit_count":532,"type":"low"},{"address":"Mairie d'arrondissement St-Laurent (Beaudet \/ Marcel-Laurin)","latitude":45.5068242,"longitude":-73.681848,"visit_count":168,"type":"low"},{"address":"Henri-Julien \/ de Bellechasse","latitude":45.5295036,"longitude":-73.6048646,"visit_count":923,"type":"low"},{"address":"de la Peltrie \/ de la C\u00f4te-des-Neiges","latitude":45.4997974,"longitude":-73.6301753,"visit_count":151,"type":"low"},{"address":"Ste-Claire \/ Pierre-T\u00e9treault","latitude":45.6019133,"longitude":-73.5244185,"visit_count":185,"type":"low"},{"address":"Parc de Beaus\u00e9jour (Gouin \/ Henri-d'Arles)","latitude":45.526765,"longitude":-73.730423,"visit_count":114,"type":"low"},{"address":"de C\u00f4me \/ Jean-Talon","latitude":45.588303,"longitude":-73.5778372,"visit_count":232,"type":"low"},{"address":"Ouimet \/ Goineau","latitude":45.5750482,"longitude":-73.6879957,"visit_count":83,"type":"low"},{"address":"de Grosbois \/ Duchesneau","latitude":45.6112307,"longitude":-73.5312416,"visit_count":274,"type":"low"},{"address":"Metcalfe \/ St-Catherine","latitude":45.500832,"longitude":-73.572459,"visit_count":862,"type":"low"},{"address":"Crescent \/ de Maisonneuve N\/E","latitude":45.4981204,"longitude":-73.5775959,"visit_count":342,"type":"low"},{"address":"de Mentana \/ Gilford","latitude":45.528724,"longitude":-73.583859,"visit_count":219,"type":"low"},{"address":"Pierre-de-Coubertin \/ Langelier","latitude":45.580315,"longitude":-73.535314,"visit_count":292,"type":"low"},{"address":"Stanley \/ Sherbrooke","latitude":45.501041,"longitude":-73.577178,"visit_count":199,"type":"low"},{"address":"Notre-Dame \/ Gauvin","latitude":45.500105,"longitude":-73.560199,"visit_count":193,"type":"low"},{"address":"Ateliers municipaux de St-Laurent (Cavendish \/ Poirier)","latitude":45.5061758,"longitude":-73.7111861,"visit_count":116,"type":"low"},{"address":"Gare Lachine (Sir George Simpson \/ 48e avenue)","latitude":45.4478213,"longitude":-73.7109178,"visit_count":31,"type":"low"},{"address":"du Souvenir \/ Chomedey","latitude":45.551886,"longitude":-73.74444,"visit_count":44,"type":"low"},{"address":"Ste-Catherine \/ Drummond S\/E","latitude":45.4986699,"longitude":-73.5742392,"visit_count":94,"type":"low"},{"address":"Parc Aim\u00e9-L\u00e9onard (Gouin \/ Ste-Gertrude)","latitude":45.6083582,"longitude":-73.6385062,"visit_count":143,"type":"low"},{"address":"St-Germain \/ Hochelaga","latitude":45.543699,"longitude":-73.553673,"visit_count":593,"type":"low"},{"address":"41e avenue \/ Victoria","latitude":45.440347,"longitude":-73.7023133,"visit_count":45,"type":"low"},{"address":"Gare du Ruisseau (Dutrisac \/ Henri-Bourassa)","latitude":45.5281437,"longitude":-73.6925454,"visit_count":47,"type":"low"},{"address":"St-Sylvestre \/ St-Charles","latitude":45.5363238,"longitude":-73.5122496,"visit_count":121,"type":"low"},{"address":"Laforest \/ Dudemaine","latitude":45.539806,"longitude":-73.687266,"visit_count":208,"type":"low"},{"address":"O'Brien \/ Poirier","latitude":45.52246,"longitude":-73.691564,"visit_count":201,"type":"low"},{"address":"Hamel \/ Sauv\u00e9","latitude":45.560762,"longitude":-73.650561,"visit_count":264,"type":"low"},{"address":"M\u00e9tro St-Laurent d\u00e9p\u00f4t 2 (de Maisonneuve \/ St-Laurent)","latitude":45.5107097,"longitude":-73.5653543,"visit_count":138,"type":"low"},{"address":"Parc Delorme (Malouin \/ Lafert\u00e9)","latitude":45.5904902,"longitude":-73.5902694,"visit_count":123,"type":"low"},{"address":"90e Avenue \/ Boulevard L\u00e9vesque O","latitude":45.5312146,"longitude":-73.747353,"visit_count":68,"type":"low"},{"address":"Saint-Denis\/de Maisonneuve","latitude":45.5144049,"longitude":-73.5618111,"visit_count":199,"type":"low"},{"address":"Souligny \/ Desmarteau","latitude":45.6046208,"longitude":-73.5159963,"visit_count":213,"type":"low"},{"address":"St-Viateur \/ Casgrain","latitude":45.5271166,"longitude":-73.5977359,"visit_count":403,"type":"low"},{"address":"Square Nelligan (des Appalaches \/ Alexis-Nihon)","latitude":45.5143182,"longitude":-73.7079982,"visit_count":104,"type":"low"},{"address":"Parc Loyola (Doherty \/ Somerled)","latitude":45.4597611,"longitude":-73.6447746,"visit_count":209,"type":"low"},{"address":"Monk \/ Biencourt","latitude":45.4586632,"longitude":-73.5960227,"visit_count":420,"type":"low"},{"address":"du Square Dorchester \/ Peel","latitude":45.4996996,"longitude":-73.5719365,"visit_count":36,"type":"low"},{"address":"Place du Village (St-Jean-Baptiste \/ Notre-Dame)","latitude":45.6400029,"longitude":-73.490113,"visit_count":67,"type":"low"},{"address":"Parc Charleroi (Alfred \/ Louis-Francoeur)","latitude":45.5995347,"longitude":-73.6236025,"visit_count":58,"type":"low"},{"address":"Gordon \/ Wellington","latitude":45.461078,"longitude":-73.567307,"visit_count":241,"type":"low"},{"address":"Parc Kirkland (des \u00c9rables \/ Boyer)","latitude":45.4460609,"longitude":-73.6507995,"visit_count":285,"type":"low"},{"address":"Parc Stoney-Point (St-Joseph \/ 47e avenue)","latitude":45.4365683,"longitude":-73.7083697,"visit_count":133,"type":"low"},{"address":"Mexico \/ Valois","latitude":45.5847051,"longitude":-73.7192541,"visit_count":23,"type":"low"},{"address":"Notre-Dame-de-Gr\u00e2ce \/ D\u00e9carie","latitude":45.477353,"longitude":-73.615372,"visit_count":216,"type":"low"},{"address":"M\u00e9tro Angrignon (Lamont \/  des Trinitaires)","latitude":45.44691,"longitude":-73.60363,"visit_count":445,"type":"low"},{"address":"St-Christophe \/ Ren\u00e9-L\u00e9vesque","latitude":45.5149464,"longitude":-73.5562329,"visit_count":278,"type":"low"},{"address":"Keller \/ Cousineau","latitude":45.5235502,"longitude":-73.7138857,"visit_count":149,"type":"low"},{"address":"Louisbourg \/ O'Brien","latitude":45.5303945,"longitude":-73.7039322,"visit_count":226,"type":"low"},{"address":"B\u00e9langer \/ St-Laurent","latitude":45.5331335,"longitude":-73.6147285,"visit_count":408,"type":"low"},{"address":"de Mentana \/ Laurier","latitude":45.53045,"longitude":-73.587638,"visit_count":994,"type":"low"},{"address":"Jean-Paul-Vincent \/ Adoncour","latitude":45.5646764,"longitude":-73.4795775,"visit_count":22,"type":"low"},{"address":"M\u00e9tro Papineau (Cartier \/ Ste-Catherine)","latitude":45.52353,"longitude":-73.55199,"visit_count":920,"type":"low"},{"address":"Parc Chopin (Dumouchel \/ Tessier)","latitude":45.5707266,"longitude":-73.737086,"visit_count":33,"type":"low"},{"address":"Saint-R\u00e9mi \/ Valois","latitude":45.5839618,"longitude":-73.7208259,"visit_count":30,"type":"low"},{"address":"H\u00f4pital Sacr\u00e9-Coeur (Forbes)","latitude":45.5319436,"longitude":-73.7136054,"visit_count":150,"type":"low"},{"address":"41e avenue \/ Rosemont","latitude":45.57179,"longitude":-73.564315,"visit_count":434,"type":"low"},{"address":"Legrand \/ Cartier","latitude":45.552298,"longitude":-73.7073827,"visit_count":137,"type":"low"},{"address":"de Chenonceau \/ Chomedey","latitude":45.56157,"longitude":-73.75448,"visit_count":46,"type":"low"},{"address":"Champdor\u00e9 \/ de Lorimier","latitude":45.5668693,"longitude":-73.6410168,"visit_count":242,"type":"low"},{"address":"Quai Yvon-Julien (Marie-Victorin \/ de Montarville)","latitude":45.606718,"longitude":-73.4569203,"visit_count":83,"type":"low"},{"address":"Jardin Botanique (Pie-IX \/ Sherbrooke)","latitude":45.554947,"longitude":-73.555295,"visit_count":480,"type":"low"},{"address":"Parc St-Sacrement (des Seigneurs \/ St-Sacrement)","latitude":45.7023493,"longitude":-73.639578,"visit_count":19,"type":"low"},{"address":"Parc des Hirondelles (Fleury \/ Andr\u00e9-Jobin)","latitude":45.5760003,"longitude":-73.6467648,"visit_count":310,"type":"low"},{"address":"Parc du P\u00e9lican (Molson \/ Masson)","latitude":45.5440891,"longitude":-73.5770595,"visit_count":47,"type":"low"},{"address":"Logan \/ d'Iberville","latitude":45.53057,"longitude":-73.54913,"visit_count":524,"type":"low"},{"address":"des Ormeaux \/ Notre-Dame","latitude":45.5992655,"longitude":-73.5122607,"visit_count":187,"type":"low"},{"address":"Chabot \/ Laurier","latitude":45.5368558,"longitude":-73.5793731,"visit_count":321,"type":"low"},{"address":"Letourneux \/ Hochelaga","latitude":45.5546589,"longitude":-73.546603,"visit_count":761,"type":"low"},{"address":"Jeanne-Mance \/ St-Martin O","latitude":45.5574215,"longitude":-73.7480604,"visit_count":43,"type":"low"},{"address":"Parc Maurice-B\u00e9langer (H\u00e9bert \/ Denomm\u00e9e)","latitude":45.5877138,"longitude":-73.6317182,"visit_count":86,"type":"low"},{"address":"Hillside \/ Ste-Catherine","latitude":45.482826,"longitude":-73.590843,"visit_count":876,"type":"low"},{"address":"Parc Plage","latitude":45.502828,"longitude":-73.527793,"visit_count":607,"type":"low"},{"address":"de la Commune \/ Queen","latitude":45.496842,"longitude":-73.5528928,"visit_count":330,"type":"low"},{"address":"Aird \/ Pierre-de-Coubertin","latitude":45.5589253,"longitude":-73.5480573,"visit_count":95,"type":"low"},{"address":"Complexe sportif Claude Robillard (\u00c9mile-Journault)","latitude":45.5529855,"longitude":-73.6386477,"visit_count":95,"type":"low"},{"address":"Wolfe \/ de la Gaucheti\u00e8re","latitude":45.5162224,"longitude":-73.5529733,"visit_count":345,"type":"low"},{"address":"M\u00e9tro Cadillac (Cadillac \/ Sherbrooke)","latitude":45.5768333,"longitude":-73.5464742,"visit_count":541,"type":"low"},{"address":"Le Corbusier \/ St-Martin O","latitude":45.5650067,"longitude":-73.7319054,"visit_count":64,"type":"low"},{"address":"Christophe-Colomb \/ Gilford","latitude":45.5297028,"longitude":-73.5828853,"visit_count":228,"type":"low"},{"address":"Notre-Dame  \/ St-Martin","latitude":45.4883019,"longitude":-73.5687178,"visit_count":895,"type":"low"},{"address":"Clark \/ Fleury","latitude":45.547581,"longitude":-73.665234,"visit_count":600,"type":"low"},{"address":"Shearer \/ Centre","latitude":45.483006,"longitude":-73.562187,"visit_count":900,"type":"low"},{"address":"Lanaudi\u00e8re \/ Jean-Talon","latitude":45.5454627,"longitude":-73.6107802,"visit_count":677,"type":"low"},{"address":"de St-Firmin \/ Fleury","latitude":45.570657,"longitude":-73.651842,"visit_count":442,"type":"low"},{"address":"M\u00e9tro Joliette  (Hochelaga \/ Joliette)","latitude":45.5469919,"longitude":-73.5511534,"visit_count":830,"type":"low"},{"address":"Ontario \/ Sicard","latitude":45.556262,"longitude":-73.537441,"visit_count":968,"type":"low"},{"address":"Charles-Daoust \/ 75e avenue","latitude":45.5425059,"longitude":-73.7409532,"visit_count":65,"type":"low"},{"address":"Murray \/ Wellington","latitude":45.4921472,"longitude":-73.5579836,"visit_count":884,"type":"low"},{"address":"du Havre \/ Hochelaga","latitude":45.535753,"longitude":-73.557941,"visit_count":248,"type":"low"},{"address":"Parc d'Antioche (Place d'Antioche \/ St-Zotique)","latitude":45.595352,"longitude":-73.55859,"visit_count":137,"type":"low"},{"address":"St-Jacques \/ des Seigneurs","latitude":45.489186,"longitude":-73.5719,"visit_count":459,"type":"low"},{"address":"29e avenue \/ St-Zotique","latitude":45.567766,"longitude":-73.579688,"visit_count":701,"type":"low"},{"address":"Gare Bois-de-Boulogne","latitude":45.539726,"longitude":-73.677165,"visit_count":319,"type":"low"},{"address":"LaSalle \/ Godin","latitude":45.446934,"longitude":-73.572199,"visit_count":853,"type":"low"},{"address":"M\u00e9tro Henri-Bourassa (Henri-Bourassa \/ Millen)","latitude":45.556751,"longitude":-73.667162,"visit_count":820,"type":"low"},{"address":"de Bordeaux \/ Jean-Talon","latitude":45.549755,"longitude":-73.605566,"visit_count":759,"type":"low"},{"address":"St-Marc \/ Sherbrooke","latitude":45.494514,"longitude":-73.583368,"visit_count":554,"type":"low"},{"address":"de la C\u00f4te-Ste-Catherine \/ Decelles","latitude":45.500941,"longitude":-73.625637,"visit_count":673,"type":"low"},{"address":"de Gasp\u00e9 \/ Jarry","latitude":45.54078,"longitude":-73.630401,"visit_count":839,"type":"low"},{"address":"de la Petrie \/de la Cote-des-Neiges","latitude":45.4996658,"longitude":-73.6302906,"visit_count":123,"type":"low"},{"address":"de Laprairie \/ Centre","latitude":45.4813667,"longitude":-73.5643189,"visit_count":592,"type":"low"},{"address":"Chabot \/ Villeray","latitude":45.5522894,"longitude":-73.6130065,"visit_count":830,"type":"low"},{"address":"Coolbrook \/ Queen-Mary","latitude":45.482852,"longitude":-73.630344,"visit_count":37,"type":"low"},{"address":"Li\u00e9bert \/ Hochelaga","latitude":45.595875,"longitude":-73.523528,"visit_count":325,"type":"low"},{"address":"M\u00e9tro Jolicoeur (de S\u00e8ve \/ Drake)","latitude":45.4560855,"longitude":-73.5819371,"visit_count":757,"type":"low"},{"address":"Louis-H\u00e9mon \/ Jean-Talon","latitude":45.5517743,"longitude":-73.6034784,"visit_count":976,"type":"low"},{"address":"Carrefour Angrignon (Angrignon \/ Newman)","latitude":45.4484341,"longitude":-73.6129455,"visit_count":121,"type":"low"},{"address":"du Champ-de-Mars \/ Gosford","latitude":45.509655,"longitude":-73.554009,"visit_count":807,"type":"low"},{"address":"Parc de Dieppe","latitude":45.5018635,"longitude":-73.543961,"visit_count":698,"type":"low"},{"address":"St-Patrick \/ Briand","latitude":45.463397,"longitude":-73.596436,"visit_count":436,"type":"low"},{"address":"Drolet \/ Gounod","latitude":45.540951,"longitude":-73.626375,"visit_count":968,"type":"low"},{"address":"Parc Eus\u00e8be-M\u00e9nard (Gouin \/ St-Vital)","latitude":45.5925395,"longitude":-73.6487482,"visit_count":193,"type":"low"},{"address":"Hogan \/ Ontario","latitude":45.535295,"longitude":-73.55116,"visit_count":740,"type":"low"},{"address":"Parc Pratt (Dunlop \/ Van Horne)","latitude":45.515007,"longitude":-73.619788,"visit_count":614,"type":"low"},{"address":"du March\u00e9 Central \/ Cr\u00e9mazie","latitude":45.5334174,"longitude":-73.6488837,"visit_count":372,"type":"low"},{"address":"Parc Villeray (Christophe-Colomb \/ Jarry)","latitude":45.5480925,"longitude":-73.624261,"visit_count":982,"type":"low"},{"address":"de l'\u00c9glise \/ Bannantyne","latitude":45.463254,"longitude":-73.575879,"visit_count":971,"type":"low"},{"address":"Boyer \/ St-Joseph","latitude":45.5295423,"longitude":-73.5846072,"visit_count":698,"type":"low"},{"address":"2e avenue \/ Jean-Rivard","latitude":45.562509,"longitude":-73.61656,"visit_count":315,"type":"low"},{"address":"St-Dominique \/ Gounod","latitude":45.538738,"longitude":-73.628022,"visit_count":357,"type":"low"},{"address":"de Gasp\u00e9 \/ Marmier","latitude":45.529686,"longitude":-73.601728,"visit_count":576,"type":"low"},{"address":"Lacombe \/ Victoria","latitude":45.490628,"longitude":-73.628878,"visit_count":469,"type":"low"},{"address":"Duke \/ Nazareth","latitude":45.4957224,"longitude":-73.5546134,"visit_count":520,"type":"low"},{"address":"Harvard \/ de Monkland","latitude":45.474565,"longitude":-73.624036,"visit_count":780,"type":"low"},{"address":"des Jockeys \/ D\u00e9carie","latitude":45.4940443,"longitude":-73.6544949,"visit_count":257,"type":"low"},{"address":"St-Hubert \/ Ren\u00e9-Levesque","latitude":45.5143692,"longitude":-73.556487,"visit_count":836,"type":"low"},{"address":"Ropery \/ Augustin-Cantin","latitude":45.480914,"longitude":-73.56846,"visit_count":972,"type":"low"},{"address":"Parc F\u00e9lix-Leclerc (Fran\u00e7ois-Boivin \/ St-Zotique)","latitude":45.591455,"longitude":-73.5627553,"visit_count":177,"type":"low"},{"address":"Notre-Dame \/ Guy","latitude":45.4900138,"longitude":-73.5672063,"visit_count":906,"type":"low"},{"address":"de l'\u00c9glise \/ de Verdun","latitude":45.463001,"longitude":-73.571569,"visit_count":915,"type":"low"},{"address":"Marquette \/ Gillford","latitude":45.533815,"longitude":-73.5789049,"visit_count":373,"type":"low"},{"address":"Fullum \/ Gilford","latitude":45.539224,"longitude":-73.573837,"visit_count":553,"type":"low"},{"address":"Bourget \/ St-Jacques","latitude":45.4808458,"longitude":-73.5838616,"visit_count":761,"type":"low"},{"address":"Clark \/ Ontario","latitude":45.5106246,"longitude":-73.5669033,"visit_count":972,"type":"low"},{"address":"Ste-Catherine \/ Drummond","latitude":45.4985885,"longitude":-73.5742781,"visit_count":509,"type":"low"},{"address":"des \u00c9rables \/ Dandurand","latitude":45.5413694,"longitude":-73.583974,"visit_count":637,"type":"low"},{"address":"M\u00e9tro Assomption (Chauveau \/ de l'Assomption)","latitude":45.569789,"longitude":-73.548081,"visit_count":607,"type":"low"},{"address":"Graham \/ Wicksteed","latitude":45.5169365,"longitude":-73.640483,"visit_count":634,"type":"low"},{"address":"St-Jacques \/ Guy","latitude":45.4913669,"longitude":-73.5701072,"visit_count":537,"type":"low"},{"address":"M\u00e9tro Monk (Allard \/ Beaulieu)","latitude":45.450851,"longitude":-73.594027,"visit_count":933,"type":"low"},{"address":"M\u00e9tro Viau ( Pierre-de-Coubertin \/ Viau)","latitude":45.5622187,"longitude":-73.5462677,"visit_count":759,"type":"low"},{"address":"Terminus Newman (Airlie \/ Lafleur)","latitude":45.4250597,"longitude":-73.6495992,"visit_count":82,"type":"low"},{"address":"Boyer \/Laurier","latitude":45.5303709,"longitude":-73.5865103,"visit_count":825,"type":"low"},{"address":"Chambord \/ Fleury","latitude":45.559828,"longitude":-73.658325,"visit_count":505,"type":"low"},{"address":"Biblioth\u00e8que Jean-Corbeil (Goncourt \/ Place Montrichard)","latitude":45.6027276,"longitude":-73.5579303,"visit_count":184,"type":"low"},{"address":"de la Montagne \/ Ste-Catherine","latitude":45.4977406,"longitude":-73.5748494,"visit_count":761,"type":"low"},{"address":"Parc Van Horne (de la Peltrie \/ de Westbury)","latitude":45.4904723,"longitude":-73.6385324,"visit_count":338,"type":"low"},{"address":"35e avenue \/ Beaubien","latitude":45.570081,"longitude":-73.573047,"visit_count":556,"type":"low"},{"address":"Dollard \/ Bernard","latitude":45.516783,"longitude":-73.611423,"visit_count":867,"type":"low"},{"address":"Fairmount \/ Hutchison","latitude":45.5196243,"longitude":-73.598312,"visit_count":606,"type":"low"},{"address":"Jogues \/ Allard","latitude":45.45002,"longitude":-73.600306,"visit_count":370,"type":"low"},{"address":"Kirkfield \/ de Chambois","latitude":45.5129332,"longitude":-73.6338902,"visit_count":562,"type":"low"},{"address":"des \u00c9cores \/ Beaubien","latitude":45.5475364,"longitude":-73.5926726,"visit_count":948,"type":"low"},{"address":"Casino de Montr\u00e9al","latitude":45.506373,"longitude":-73.524577,"visit_count":623,"type":"low"},{"address":"Quai de la navette fluviale","latitude":45.513741,"longitude":-73.538382,"visit_count":451,"type":"low"},{"address":"Lucien L'Allier \/ St-Jacques","latitude":45.493569,"longitude":-73.568576,"visit_count":950,"type":"low"},{"address":"6e avenue \/ Villeray","latitude":45.5587396,"longitude":-73.6058904,"visit_count":402,"type":"low"},{"address":"Elgar \/ de l'\u00cele-des-S\u0153urs","latitude":45.456823,"longitude":-73.546804,"visit_count":575,"type":"low"},{"address":"Gare Montpellier (Muir \/ de la C\u00f4te-Vertu)","latitude":45.5237405,"longitude":-73.6716992,"visit_count":251,"type":"low"},{"address":"M\u00e9tro Acadie (de l'Acadie \/ Beaumont)","latitude":45.523575,"longitude":-73.623443,"visit_count":984,"type":"low"},{"address":"Place Longueuil","latitude":45.52841,"longitude":-73.517166,"visit_count":127,"type":"low"},{"address":"de Maisonneuve \/ Wood","latitude":45.4881979,"longitude":-73.5880705,"visit_count":843,"type":"low"},{"address":"de Lisieux \/ Jean-Talon","latitude":45.579349,"longitude":-73.581681,"visit_count":291,"type":"low"},{"address":"Rosemont \/ Viau","latitude":45.56833,"longitude":-73.566663,"visit_count":735,"type":"low"},{"address":"St-Joseph \/ 8e avenue Lachine","latitude":45.43155,"longitude":-73.67112,"visit_count":486,"type":"low"},{"address":"Clark \/ de Li\u00e8ge","latitude":45.539984,"longitude":-73.638135,"visit_count":432,"type":"low"},{"address":"B\u00e9langer \/ des Galeries d'Anjou","latitude":45.597221,"longitude":-73.56279,"visit_count":352,"type":"low"},{"address":"Guizot \/ St-Denis","latitude":45.543424,"longitude":-73.632462,"visit_count":989,"type":"low"},{"address":"LaSalle \/ Crawford","latitude":45.437914,"longitude":-73.58274,"visit_count":498,"type":"low"},{"address":"Cartier \/ Rosemont","latitude":45.541247,"longitude":-73.591044,"visit_count":974,"type":"low"},{"address":"12e avenue \/ St-Zotique","latitude":45.556867,"longitude":-73.589307,"visit_count":838,"type":"low"},{"address":"Graham \/ Kindersley","latitude":45.51405,"longitude":-73.6472556,"visit_count":460,"type":"low"},{"address":"Beatty \/ de Verdun","latitude":45.45073,"longitude":-73.572575,"visit_count":946,"type":"low"},{"address":"Robert-Bourassa \/ St-Maurice","latitude":45.4983705,"longitude":-73.5605559,"visit_count":771,"type":"low"},{"address":"20e avenue \/ de Bellechasse","latitude":45.5599626,"longitude":-73.5769522,"visit_count":446,"type":"low"},{"address":"M\u00e9tro Langelier (Langelier \/ Sherbrooke)","latitude":45.582847,"longitude":-73.542476,"visit_count":525,"type":"low"},{"address":"Alton-Goldbloom \/ Notre-Dame","latitude":45.545026,"longitude":-73.7378767,"visit_count":51,"type":"low"},{"address":"Parc de la Conf\u00e9d\u00e9ration (Fielding \/ West Hill)","latitude":45.471882,"longitude":-73.6400217,"visit_count":766,"type":"low"},{"address":"Parc Henri-Julien (Legendre \/ Henri-Julien)","latitude":45.5460356,"longitude":-73.6465985,"visit_count":478,"type":"low"},{"address":"Travaux publics LaSalle (Cordner \/ L\u00e9ger)","latitude":45.4452719,"longitude":-73.6244836,"visit_count":237,"type":"low"},{"address":"H\u00e9l\u00e8ne-Baillargeon \/ St-Denis","latitude":45.52974,"longitude":-73.59527,"visit_count":878,"type":"low"},{"address":"de Normanville \/ Villeray","latitude":45.54717,"longitude":-73.618041,"visit_count":838,"type":"low"},{"address":"Parc Benny (Benny \/ de Monkland)","latitude":45.4669357,"longitude":-73.6315311,"visit_count":642,"type":"low"},{"address":"Pr\u00e9fontaine \/ Marcel-P\u00e9pin","latitude":45.5436538,"longitude":-73.5594206,"visit_count":368,"type":"low"},{"address":"Terminus Le Carrefour (Terry-Fox \/ Le Carrefour)","latitude":45.5684203,"longitude":-73.7468728,"visit_count":69,"type":"low"},{"address":"Irwin \/ Allard","latitude":45.4489034,"longitude":-73.6049049,"visit_count":41,"type":"low"},{"address":"Parc Chenier (de l'Ar\u00e9na \/ Chenier)","latitude":45.6024865,"longitude":-73.5432905,"visit_count":120,"type":"low"},{"address":"P\u00e9loquin \/ Fleury","latitude":45.5570222,"longitude":-73.6599016,"visit_count":446,"type":"low"},{"address":"St-Timoth\u00e9e \/ Robin","latitude":45.5186318,"longitude":-73.5611299,"visit_count":99,"type":"low"},{"address":"M\u00e9tro C\u00f4te-Ste-Catherine (Beaucourt \/ de la C\u00f4te-Ste-Catherine)","latitude":45.491513,"longitude":-73.633649,"visit_count":506,"type":"low"},{"address":"Rose-de-Lima \/ Workman","latitude":45.4802642,"longitude":-73.5809936,"visit_count":786,"type":"low"},{"address":"Parc Howard (de l'\u00c9p\u00e9e \/ de Li\u00e8ge)","latitude":45.5616903,"longitude":-73.610512,"visit_count":667,"type":"low"},{"address":"Hochelaga \/ de l'Assomption","latitude":45.5668831,"longitude":-73.5394382,"visit_count":393,"type":"low"},{"address":"Berlioz \/ de l'\u00cele des Soeurs","latitude":45.459986,"longitude":-73.543956,"visit_count":577,"type":"low"},{"address":"Parc St-Louis (St-Joseph \/ 34e avenue)","latitude":45.4328398,"longitude":-73.6934915,"visit_count":314,"type":"low"},{"address":"Grand Boulevard \/ de Terrebonne","latitude":45.470544,"longitude":-73.63168,"visit_count":508,"type":"low"},{"address":"St-Joseph Lachine \/ 21e avenue","latitude":45.4335212,"longitude":-73.6835432,"visit_count":290,"type":"low"},{"address":"Chabanel \/ Tolhurst","latitude":45.540105,"longitude":-73.6534703,"visit_count":560,"type":"low"},{"address":"Everett \/ Garnier","latitude":45.5475815,"longitude":-73.6122085,"visit_count":670,"type":"low"},{"address":"Hamilton \/ Jolicoeur","latitude":45.456355,"longitude":-73.597557,"visit_count":809,"type":"low"},{"address":"H\u00f4pital G\u00e9n\u00e9ral Juif (de la C\u00f4te-Ste-Catherine \/ L\u00e9gar\u00e9)","latitude":45.4962414,"longitude":-73.6298387,"visit_count":749,"type":"low"},{"address":"des \u00c9rables \/ Laurier","latitude":45.5384608,"longitude":-73.5776791,"visit_count":753,"type":"low"},{"address":"Ontario \/ Ville-Marie","latitude":45.5600196,"longitude":-73.5349345,"visit_count":161,"type":"low"},{"address":"Parc des Rapides (LaSalle \/ 6e avenue)","latitude":45.429471,"longitude":-73.593099,"visit_count":866,"type":"low"},{"address":"26e avenue \/ Beaubien","latitude":45.564944,"longitude":-73.577639,"visit_count":760,"type":"low"},{"address":"Rielle \/ Wellington","latitude":45.4601559,"longitude":-73.5670012,"visit_count":551,"type":"low"},{"address":"Biblioth\u00e8que de Verdun (Brown \/ Bannantyne)","latitude":45.448262,"longitude":-73.577856,"visit_count":470,"type":"low"},{"address":"Gilford \/ de Br\u00e9beuf","latitude":45.530816,"longitude":-73.581626,"visit_count":192,"type":"low"},{"address":"CHSLD St-Michel (8e avenue \/ Jarry)","latitude":45.5616903,"longitude":-73.610512,"visit_count":244,"type":"low"},{"address":"8e avenue \/ Everett","latitude":45.5648113,"longitude":-73.5958041,"visit_count":312,"type":"low"},{"address":"Parc Nicolas-Tillemont (des \u00c9rables \/ Villeray)","latitude":45.5546365,"longitude":-73.6125522,"visit_count":687,"type":"low"},{"address":"Nicolet \/ Sherbrooke","latitude":45.549695,"longitude":-73.554647,"visit_count":684,"type":"low"},{"address":"des Carri\u00e8res \/ Marquette","latitude":45.5385795,"longitude":-73.5884857,"visit_count":355,"type":"low"},{"address":"M\u00e9tro Radisson (Sherbrooke \/ des Groseilliers)","latitude":45.589175,"longitude":-73.539656,"visit_count":551,"type":"low"},{"address":"Stationnement incitatif de Montarville (de Montarville)","latitude":45.6011636,"longitude":-73.4499935,"visit_count":18,"type":"low"},{"address":"d'Orl\u00e9ans \/ Hochelaga","latitude":45.550768,"longitude":-73.549427,"visit_count":766,"type":"low"},{"address":"Michelet \/ Jean-Talon","latitude":45.5762911,"longitude":-73.583529,"visit_count":343,"type":"low"},{"address":"Atwater \/ Sherbrooke","latitude":45.491226,"longitude":-73.58763,"visit_count":902,"type":"low"},{"address":"Beaubien \/ Clark","latitude":45.5301473,"longitude":-73.609824,"visit_count":177,"type":"low"},{"address":"Ernest-Gendreau \/ du Mont-Royal","latitude":45.549714,"longitude":-73.563848,"visit_count":843,"type":"low"},{"address":"McKenna \/ \u00c9douard-Montpetit","latitude":45.5011651,"longitude":-73.6205475,"visit_count":684,"type":"low"},{"address":"Louis-H\u00e9bert \/ B\u00e9langer","latitude":45.551585,"longitude":-73.599165,"visit_count":760,"type":"low"},{"address":"M\u00e9tro Honor\u00e9-Beaugrand (Sherbrooke \/ Honor\u00e9-Beaugrand)","latitude":45.596797,"longitude":-73.535179,"visit_count":739,"type":"low"},{"address":"St-Urbain \/ Laurier","latitude":45.5216462,"longitude":-73.5936677,"visit_count":994,"type":"low"},{"address":"de Chateaubriand \/ Jarry","latitude":45.545955,"longitude":-73.626992,"visit_count":758,"type":"low"},{"address":"Place Rodolphe-Rousseau (Gohier \/ \u00c9douard-Laurin)","latitude":45.5129939,"longitude":-73.6824985,"visit_count":631,"type":"low"},{"address":"Papineau \/ \u00c9mile-Journault","latitude":45.559884,"longitude":-73.633568,"visit_count":618,"type":"low"},{"address":"Davaar \/ de la C\u00f4te-Ste-Catherine","latitude":45.514379,"longitude":-73.610871,"visit_count":434,"type":"low"},{"address":"St-Mathieu \/ Ren\u00e9-Levesque","latitude":45.492134,"longitude":-73.5763836,"visit_count":186,"type":"low"},{"address":"St-Sylvestre \/ St-Charles S\/E","latitude":45.5363889,"longitude":-73.5124558,"visit_count":14,"type":"low"}]